{"type":"FeatureCollection","features":[{"type":"Feature","geometry":{"type":"Point","coordinates":[120.549909,23.709828,0]},"properties":{"name":"社團法人雲林沐馨服務協會"}},{"type":"Feature","geometry":{"type":"Point","coordinates":[120.1616,23.615794,0]},"properties":{"name":"雲林縣家園關懷協會"}},{"type":"Feature","geometry":{"type":"Point","coordinates":[120.29389,23.457401,0]},"properties":{"name":"社團法人嘉義縣慈善團體聯合協會"}},{"type":"Feature","geometry":{"type":"Point","coordinates":[120.442478,23.492891,0]},"properties":{"name":"嘉義市欣願福利協會"}},{"type":"Feature","geometry":{"type":"Point","coordinates":[120.461388,23.483929,0]},"properties":{"name":"財團法人私立天主教中華聖母社會福利慈善事業基金會"}},{"type":"Feature","geometry":{"type":"Point","coordinates":[120.438388,23.683556,0]},"properties":{"name":"財團法人慶興社會福利基金會"}},{"type":"Feature","geometry":{"type":"Point","coordinates":[120.307656,23.330316,0]},"properties":{"name":"台南市新營區護鎮社區發展協會"}},{"type":"Feature","geometry":{"type":"Point","coordinates":[120.461388,23.483929,0]},"properties":{"name":"財團法人私立天主教中華聖母社會福利慈善事業基金會"}},{"type":"Feature","geometry":{"type":"Point","coordinates":[120.272019,23.008168,0]},"properties":{"name":"社團法人台南市酵母社會關懷協進會"}},{"type":"Feature","geometry":{"type":"Point","coordinates":[120.2269406,23.6373474,0]},"properties":{"name":"社團法人台灣愛鄰社區服務協會-雲林辦事處"}},{"type":"Feature","geometry":{"type":"Point","coordinates":[120.4427797,23.4708092,0]},"properties":{"name":"中華民國白玫瑰社會關懷協會"}},{"type":"Feature","geometry":{"type":"Point","coordinates":[120.3153273,23.3114999,0]},"properties":{"name":"中華民國紅十字會台灣省台南縣支會"}},{"type":"Feature","geometry":{"type":"Point","coordinates":[120.3093174,22.61306,0]},"properties":{"name":"社團法人高雄市鑫鑫慈善會\n"}},{"type":"Feature","geometry":{"type":"Point","coordinates":[120.3433743,22.6293697,0]},"properties":{"name":"社團法人高雄市社福慈善總會\n"}},{"type":"Feature","geometry":{"type":"Point","coordinates":[120.5014158,22.6863199,0]},"properties":{"name":"社團法人屏東慈善團體聯合協會"}},{"type":"Feature","geometry":{"type":"Point","coordinates":[120.5724465,22.75471,0]},"properties":{"name":"社團法人屏東縣慧光慈善功德會"}},{"type":"Feature","geometry":{"type":"Point","coordinates":[120.581034,22.709909,0]},"properties":{"name":"財團法人屏東縣私立椰子園老人養護之家\n"}},{"type":"Feature","geometry":{"type":"Point","coordinates":[120.30265,22.650321,0]},"properties":{"name":"社團法人高雄市慈善團體聯合總會"}},{"type":"Feature","geometry":{"type":"Point","coordinates":[120.567245,24.124645,0]},"properties":{"name":"社團法人台中市大肚區禾楓慈善老人關懷協會"}},{"type":"Feature","geometry":{"type":"Point","coordinates":[120.650142,24.133216,0]},"properties":{"name":"社團法人台中市多福教育關懷協會"}},{"type":"Feature","geometry":{"type":"Point","coordinates":[120.725944,24.236906,0]},"properties":{"name":"財團法人醒世慈善會台中市分事務所"}},{"type":"Feature","geometry":{"type":"Point","coordinates":[120.66645,24.125858,0]},"properties":{"name":"社團法人台中市喜樂福關懷協會"}},{"type":"Feature","geometry":{"type":"Point","coordinates":[120.684976,24.167453,0]},"properties":{"name":"財團法人台中市私立衡山社會福利基金會"}},{"type":"Feature","geometry":{"type":"Point","coordinates":[120.717661,24.133851,0]},"properties":{"name":"財團法人一貫道崇正基金會"}},{"type":"Feature","geometry":{"type":"Point","coordinates":[120.633623,24.33188,0]},"properties":{"name":"財團法人台中市私立康家社會福利基金會"}},{"type":"Feature","geometry":{"type":"Point","coordinates":[120.712152,24.257448,0]},"properties":{"name":"財團法人台中市私立弗傳慈心社會福利慈善事業基金會"}},{"type":"Feature","geometry":{"type":"Point","coordinates":[120.679363,24.161769,0]},"properties":{"name":"財團法人天主教台中教區附設互愛物資銀行"}},{"type":"Feature","geometry":{"type":"Point","coordinates":[120.665806,23.903154,0]},"properties":{"name":"社團法人中華民國紅十字會台灣省南投縣支會"}},{"type":"Feature","geometry":{"type":"Point","coordinates":[120.657569,24.148469,0]},"properties":{"name":"社團法人台灣陽光婦女協會"}},{"type":"Feature","geometry":{"type":"Point","coordinates":[120.681505,23.910796,0]},"properties":{"name":"社團法人南投縣青年返鄉服務協會"}},{"type":"Feature","geometry":{"type":"Point","coordinates":[120.973603,23.965148,0]},"properties":{"name":"台灣省甘霖功德會"}},{"type":"Feature","geometry":{"type":"Point","coordinates":[120.595337,23.950541,0]},"properties":{"name":"社團法人彰化縣愛加倍社區服務協會"}},{"type":"Feature","geometry":{"type":"Point","coordinates":[120.547446,24.086619,0]},"properties":{"name":"社團法人彰化縣愛鄰社會福利協會"}},{"type":"Feature","geometry":{"type":"Point","coordinates":[120.581507,23.958228,0]},"properties":{"name":"社團法人彰化縣彰暉愛心慈善協會"}},{"type":"Feature","geometry":{"type":"Point","coordinates":[120.696905,24.026009,0]},"properties":{"name":"中華民國旭日青少年發展協會"}},{"type":"Feature","geometry":{"type":"Point","coordinates":[120.696072,24.056628,0]},"properties":{"name":"財團法人台中市私立林蘭生慈善基金會"}},{"type":"Feature","geometry":{"type":"Point","coordinates":[120.684086,24.13946,0]},"properties":{"name":"台灣食物銀行聯合會","description":"<img src=\"https://doc-0o-2s-mymaps.googleusercontent.com/untrusted/hostedimage/f6u64nodcabo26320jjaagdfpc/too7sumjc5th6jfo94uc99ucuc/1578222900000/88G9EWVEQtrnDFVimK5EeSaMGvg5_rm9/*/2AF2TALoFdwekLcVC-2a7nfbeYREqB8vJTlNMpLSrQdAJUywfZnLqtynomSwg_kgGtanLkiOziHgXwyK7lYip4fh8otWt-DTxCYD3wu2vmajF2xvP5fMzsCMZKGU1VRtzDDb9i2cUFwbb-6iGepycNepqLwoxY1-fDcf7Qq4z9UFyfsqNrX3rXqcrJXsOybY-GUTEPdPnHGY-o_-_BCUXGBIFfoNSE5f5dojQkKCYdyVFmoCU91kiPkjVE3AtqR0_u4BColOVbop8htfhvf4OGpEKn3nT1Ftv-Q?session=0&fife\" height=\"200\" width=\"auto\" /><br><br>社團法人中華民國紅十字會台灣省台中支會","gx_media_links":"https://doc-0o-2s-mymaps.googleusercontent.com/untrusted/hostedimage/f6u64nodcabo26320jjaagdfpc/too7sumjc5th6jfo94uc99ucuc/1578222900000/88G9EWVEQtrnDFVimK5EeSaMGvg5_rm9/*/2AF2TALoFdwekLcVC-2a7nfbeYREqB8vJTlNMpLSrQdAJUywfZnLqtynomSwg_kgGtanLkiOziHgXwyK7lYip4fh8otWt-DTxCYD3wu2vmajF2xvP5fMzsCMZKGU1VRtzDDb9i2cUFwbb-6iGepycNepqLwoxY1-fDcf7Qq4z9UFyfsqNrX3rXqcrJXsOybY-GUTEPdPnHGY-o_-_BCUXGBIFfoNSE5f5dojQkKCYdyVFmoCU91kiPkjVE3AtqR0_u4BColOVbop8htfhvf4OGpEKn3nT1Ftv-Q?session=0&fife"}},{"type":"Feature","geometry":{"type":"Point","coordinates":[120.7225197,24.3101303,0]},"properties":{"name":"社團法人台中市基督教豐盛協會"}},{"type":"Feature","geometry":{"type":"Point","coordinates":[121.506602,25.007141,0]},"properties":{"name":"社團法人中華基督教救助協會"}},{"type":"Feature","geometry":{"type":"Point","coordinates":[121.504202,25.260947,0]},"properties":{"name":"社團法人中華民國新生活社會褔利發展促進會"}},{"type":"Feature","geometry":{"type":"Point","coordinates":[121.41435,24.956152,0]},"properties":{"name":"社團法人新北市家長志工教育成長協會"}},{"type":"Feature","geometry":{"type":"Point","coordinates":[121.456877,25.06408,0]},"properties":{"name":"社團法人中華安得烈慈善協會"}},{"type":"Feature","geometry":{"type":"Point","coordinates":[121.413833,25.02557,0]},"properties":{"name":"社團法人台灣社區鴻羽關懷協會"}},{"type":"Feature","geometry":{"type":"Point","coordinates":[121.526986,25.037283,0]},"properties":{"name":"財團法人台灣基督教福利會"}},{"type":"Feature","geometry":{"type":"Point","coordinates":[121.50513,25.029707,0]},"properties":{"name":"社團法人台北市臻佶祥社會服務協會","description":"(方里長)"}},{"type":"Feature","geometry":{"type":"Point","coordinates":[121.526132,25.021064,0]},"properties":{"name":"財團法人興毅社會福利慈善事業基金會"}},{"type":"Feature","geometry":{"type":"Point","coordinates":[121.534633,25.051522,0]},"properties":{"name":"財團法人感恩社會福利基金會"}},{"type":"Feature","geometry":{"type":"Point","coordinates":[121.536476,25.025576,0]},"properties":{"name":"社團法人台灣愛鄰社區服務協會"}},{"type":"Feature","geometry":{"type":"Point","coordinates":[121.4993,25.124433,0]},"properties":{"name":"財團法人家樂福文教基金會"}},{"type":"Feature","geometry":{"type":"Point","coordinates":[121.524486,25.057923,0]},"properties":{"name":"台灣國際飢餓對策協會"}},{"type":"Feature","geometry":{"type":"Point","coordinates":[121.512879,25.042725,0]},"properties":{"name":"財團法人金花教育基金會"}},{"type":"Feature","geometry":{"type":"Point","coordinates":[121.532825,25.057827,0]},"properties":{"name":"財團法人廣青文教基金會"}},{"type":"Feature","geometry":{"type":"Point","coordinates":[121.622137,25.038817,0]},"properties":{"name":"社團法人台北市南港區舊莊社區發展協會"}},{"type":"Feature","geometry":{"type":"Point","coordinates":[121.563175,25.040801,0]},"properties":{"name":"聯合利華股份有限公司"}},{"type":"Feature","geometry":{"type":"Point","coordinates":[121.4427498,25.0317725,0]},"properties":{"name":"中華分享愛大善急助協會"}},{"type":"Feature","geometry":{"type":"Point","coordinates":[121.761988,24.789066,0]},"properties":{"name":"社團法人宜蘭縣愛加倍關懷協會"}},{"type":"Feature","geometry":{"type":"Point","coordinates":[121.137733,22.748687,0]},"properties":{"name":"社團法人台灣安心家庭關懷協會"}},{"type":"Feature","geometry":{"type":"Point","coordinates":[121.7708378,24.820466,0]},"properties":{"name":"社團法人宜蘭縣蓮記飄香饌關懷協會"}},{"type":"Feature","geometry":{"type":"Point","coordinates":[121.275093,24.981102,0]},"properties":{"name":"社團法人中華民國篤仁慈善關懷協會"}},{"type":"Feature","geometry":{"type":"Point","coordinates":[121.312341,25.015693,0]},"properties":{"name":"桃園市及時雨行善協會"}},{"type":"Feature","geometry":{"type":"Point","coordinates":[121.248663,24.933086,0]},"properties":{"name":"財團法人桃園市真善美社會福利基金會"}},{"type":"Feature","geometry":{"type":"Point","coordinates":[121.309557,24.975207,0]},"properties":{"name":"旭登護理之家"}},{"type":"Feature","geometry":{"type":"Point","coordinates":[121.146323,24.91321,0]},"properties":{"name":"社團法人桃園市慈馨公益關懷協會"}},{"type":"Feature","geometry":{"type":"Point","coordinates":[120.654187,24.443045,0]},"properties":{"name":"財團法人基督教苑裡聖教會"}},{"type":"Feature","geometry":{"type":"Point","coordinates":[120.91414,24.689158,0]},"properties":{"name":"中華民國紅十字會台灣省苗栗縣支會"}}]}