{"type":"FeatureCollection","features":[{"type":"Feature","geometry":{"type":"Point","coordinates":[121.504202,25.260947,0]},"properties":{"name":"新北三芝埔坪站","description":"社團法人中華民國新生活社會褔利發展促進會<br>服務電話<br>02-26362978"}},{"type":"Feature","geometry":{"type":"Point","coordinates":[121.51994,24.9977764,0]},"properties":{"name":"新北永和民族站","description":"新北永和民權社區發展協會"}},{"type":"Feature","geometry":{"type":"Point","coordinates":[121.41435,24.956152,0]},"properties":{"name":"新北土城頂埔站","description":"社團法人新北市家長志工教育成長協會"}},{"type":"Feature","geometry":{"type":"Point","coordinates":[121.619483,25.041307,0]},"properties":{"name":"台北南港舊庄站","description":"管理單位:舊莊社區發展協會<br>服務地點:舊莊街一段199巷11弄8號<br>服務電話：0931518686<br>服務時間:下午16：30-17：00<br>服務對象:弱勢族群<br>受贈物品品項：麵包，生鮮蔬果，熟飯菜等"}},{"type":"Feature","geometry":{"type":"Point","coordinates":[121.6171289,25.0367366,0]},"properties":{"name":"台北南港中研站","description":"*久如社區發展協會"}},{"type":"Feature","geometry":{"type":"Point","coordinates":[121.586507,25.0438685,0]},"properties":{"name":"台北南港鴻福站","description":"*台北鴻福社區發展協會"}},{"type":"Feature","geometry":{"type":"Point","coordinates":[121.556904,25.079811,0]},"properties":{"name":"財團法人基督教台灣信義會大直真理堂","description":"服務電話<br>02-8501-1754"}},{"type":"Feature","geometry":{"type":"Point","coordinates":[121.7537023,25.0959856,0]},"properties":{"name":"基隆暖暖碇內站","description":"管理單位: 基隆暖暖區碇內社區發展協會                     （關懷據點C級巷弄長照站）<br>服務地點: 基隆暖暖區暖碇路15巷136號<br>服務電話：02-2459-5108、<br>                     0936-941070<br>服務時間: 每週二四五下午14:00-1600<br>受贈物品品項： 蛋奶素食類之乾貨、麵包、罐頭、冷藏類、冷凍類、生鮮蔬果類"}},{"type":"Feature","geometry":{"type":"Point","coordinates":[121.471424,25.025271,0]},"properties":{"name":"板橋愛心free食物銀行"}},{"type":"Feature","geometry":{"type":"Point","coordinates":[121.636311,25.222944,0]},"properties":{"name":"萬金社區食物銀行(社區冰箱)"}},{"type":"Feature","geometry":{"type":"Point","coordinates":[121.531603,25.020138,0]},"properties":{"name":"享食站 半路咖啡 - Food Hub Halfway Cafe"}},{"type":"Feature","geometry":{"type":"Point","coordinates":[121.445395,25.011518,0]},"properties":{"name":"分享愛社團-板橋愛心冰箱站"}},{"type":"Feature","geometry":{"type":"Point","coordinates":[121.506368,25.029375,0]},"properties":{"name":"南機場食享冰箱-忠勤里","description":"服務地點:台北市中華路二段307巷42號<br>服務電話：02-23036281<br>服務時間:每周一至周五 16:20-17:00<br>服務對象:任何社區民眾<br>受贈物品品項：麵包為主，偶爾有蔬菜白飯"}},{"type":"Feature","geometry":{"type":"Point","coordinates":[121.524674,25.022422,0]},"properties":{"name":"南機場食享冰箱-頂東里","description":"服務地點:台北市晉江街112巷2弄6號<br>服務電話：02-23648892<br>服務時間:每周一至周五15:00~發完為止<br>服務對象:任何社區民眾<br>受贈物品品項：麵包"}},{"type":"Feature","geometry":{"type":"Point","coordinates":[121.531283,25.028844,0]},"properties":{"name":"515 Cafe&books 享食冰箱","description":"時間：週一至週日11:30 - 23:00"}},{"type":"Feature","geometry":{"type":"Point","coordinates":[121.509865,25.027104,0]},"properties":{"name":"南機場食享冰箱-永昌里","description":"服務地點:汀洲路一段242巷17號<br>服務電話：0958-971396<br>服務時間:每周一至周五 16:20-17:00<br>服務對象:任何社區民眾<br>受贈物品品項：麵包"}},{"type":"Feature","geometry":{"type":"Point","coordinates":[121.525285,25.016933,0]},"properties":{"name":"南機場食享冰箱-林興里","description":"服務地點:水源路21號<br>服務電話：02-23686919<br>服務時間:每周一至周五 15:00-16:00<br>服務對象:任何社區民眾<br>受贈物品品項：麵包"}},{"type":"Feature","geometry":{"type":"Point","coordinates":[121.520266,25.032802,0]},"properties":{"name":"南機場食享冰箱-新營里","description":"服務地點:寧波東街16巷2號<br>服務電話：02-23214028<br>服務時間:每周一至周五13:30-16:30<br>服務對象:任何社區民眾<br>受贈物品品項：麵包"}},{"type":"Feature","geometry":{"type":"Point","coordinates":[121.49432,25.023843,0]},"properties":{"name":"南機場食享冰箱-孝德里","description":"服務地點:台北市萬華區寶興街140巷17弄2號<br>服務電話：0920-285615<br>服務時間:每周一至周五 16:30-18:00<br>服務對象:任何社區民眾<br>受贈物品品項：麵包"}},{"type":"Feature","geometry":{"type":"Point","coordinates":[121.5013351,25.0238385,0]},"properties":{"name":"台北萬華壽德站","description":"管理單位:萬大社區發展協會"}},{"type":"Feature","geometry":{"type":"Point","coordinates":[121.5465944,25.0348489,0]},"properties":{"name":"台北大安德安站","description":"管理單位:台灣國際飢餓對策協會"}},{"type":"Feature","geometry":{"type":"Point","coordinates":[121.631893,25.069386,0]},"properties":{"name":"新北汐止金龍站"}},{"type":"Feature","geometry":{"type":"Point","coordinates":[121.5344063,25.0637425,0]},"properties":{"name":"台北中山行政站"}},{"type":"Feature","geometry":{"type":"Point","coordinates":[121.458259,25.0835779,0]},"properties":{"name":"新北蘆洲永德站"}},{"type":"Feature","geometry":{"type":"Point","coordinates":[120.641031,24.33195,0]},"properties":{"name":"台中外埔水美站","description":"管理單位:康家食物銀行<br>服務地點:台中市外埔區水美路20號<br>服務電話：26877229<br>服務時間: 週一~五<br>9:00~12:00<br>13:00~17:00<br>服務對象:經濟弱勢.邊緣戶.急難家庭等<br>受贈物品品項：食物.實物<br>分享食物分享愛-歡迎大家共同惜食愛地球"}},{"type":"Feature","geometry":{"type":"Point","coordinates":[120.621734,24.341922,0]},"properties":{"name":"台中大甲南陽站","description":"管理單位:康家食物銀行<br>服務地點:台中市大甲區中山路一段825-2號1F<br>服務電話：26878156<br>服務時間: 週一~五<br>9:00~12:00<br>13:00~17:00<br>週六9:00~12:00<br>服務對象:經濟弱勢.邊緣戶.急難家庭等<br>受贈物品品項：食物.實物<br>分享食物分享愛-歡迎大家共同惜食愛地球"}},{"type":"Feature","geometry":{"type":"Point","coordinates":[120.66645,24.125858,0]},"properties":{"name":"台中南區福興站","description":"社團法人臺中市喜樂福關懷協會"}},{"type":"Feature","geometry":{"type":"Point","coordinates":[120.620448,24.106298,0]},"properties":{"name":"台中烏日湖日站","description":"管理單位：童庭社會福利慈善事業基金會<br>服務地點：台中市烏日區新興路612巷 27號<br>服務電話：04-23360996<br>服務時間：每週一至週五上午10:00至晚上07:00<br>服務對象：社區有需要民眾"}},{"type":"Feature","geometry":{"type":"Point","coordinates":[120.657569,24.148469,0]},"properties":{"name":"台中西屯公益站","description":"服務電話<br>04-23027108"}},{"type":"Feature","geometry":{"type":"Point","coordinates":[120.6895564,24.1484997,0]},"properties":{"name":"台中北區樂英站"}},{"type":"Feature","geometry":{"type":"Point","coordinates":[120.684086,24.13946,0]},"properties":{"name":"台中中區綠川站","description":"管理單位:紅十字會台灣省台中支會<br>服務地點:台中市中區綠川西街145號7樓<br>服務電話：04-22222411轉213<br>服務時間:每月第四週週六9-12點<br>服務對象:紅十字會台中支會(食物銀行補助案)<br>受贈物品品項：冷藏冷凍食品、生活用品<br>分享食物分享愛-歡迎大家共同惜食愛地球"}},{"type":"Feature","geometry":{"type":"Point","coordinates":[120.650142,24.133216,0]},"properties":{"name":"台中南屯豐樂站","description":"管理單位: 臺中市多福教育關懷協會<br>服務地點: 臺中市南屯區文心南三路281號<br>服務電話： 04-24758251<br>服務時間: 10:00-11:00，16:00-17:00<br>服務對象: 臺中市市民<br>受贈物品品項： 蔬果，麵包<br>分享食物分享愛-歡迎大家共同惜食愛地球"}},{"type":"Feature","geometry":{"type":"Point","coordinates":[120.6969051,24.0260087,0]},"properties":{"name":"台中大里祥興站","description":"旭日"}},{"type":"Feature","geometry":{"type":"Point","coordinates":[120.6064373,24.1926966,0]},"properties":{"name":"台中西屯永安站"}},{"type":"Feature","geometry":{"type":"Point","coordinates":[120.5735053,24.1521652,0]},"properties":{"name":"台中大肚瑞井站"}},{"type":"Feature","geometry":{"type":"Point","coordinates":[120.6460121,24.1676529,0]},"properties":{"name":"台中西屯惠來站"}},{"type":"Feature","geometry":{"type":"Point","coordinates":[120.5475351,24.1489335,0]},"properties":{"name":"台中大肚大東站"}},{"type":"Feature","geometry":{"type":"Point","coordinates":[120.7225197,24.3101303,0]},"properties":{"name":"台中后里站","description":"管理單位:社團法人台中市基督教豐盛協會<br>服務地點:台中市后里區后里里4鄰三豐路四段43號<br>服務電話：04-25587003<br>服務時間:周一至周日<br>服務對象:社區民眾<br>受贈物品品項：麵包、生鮮<br>其他補充事項：一週二次社區共餐(週四、週日)"}},{"type":"Feature","geometry":{"type":"Point","coordinates":[120.3623134,23.8574499,0]},"properties":{"name":"彰化二林廣興站","description":"管理單位: 彰化縣二林鎮溝頭社區發展協會<br>服務地點 :二林鎮廣興里溝頭巷51號<br>服務電話: 0915-668820<br>服務時間: 每週二早上9點至10點30分<br>服務對象: 邊緣户及廣興弱勢家庭<br>受贈物品品項:麵包、水果、乾貨、罐頭、米、生活用品<br>其他補充事項:如有物資可代為轉贈物品及服務時間，依實際運作後調整"}},{"type":"Feature","geometry":{"type":"Point","coordinates":[120.370437,23.8970204,0]},"properties":{"name":"彰化二林南光站","description":"管理單位: 樂林食<實>物銀行<br>服務地點：彰化縣二林鎮建興街40號<br>服務電話： 04-8952060<br>服務時間: 每週一至週六，上午9點至12點<br>服務對象: 弱勢家庭<br>受贈物品品項： 麵包，蔬菜，水果，乾貨。<br>其他補充事項：樂林食物銀行為大二林區食物冰箱平台。我們依所收到物資。分類再度分享其他社區食物冰箱。<br>如有物資捐贈及服務時間，依實際需要調整。"}},{"type":"Feature","geometry":{"type":"Point","coordinates":[120.391404,23.933846,0]},"properties":{"name":"彰化二林趙甲站","description":"管理單位：二林鎮趙甲社區發展協會<br>服務地點：二林鎮趙甲里鎮平巷4號之三<br>服務電話：0972-066618（曾免）<br>服務時間：每週二早上9點30分∼11點止<br>服務對象：社區居民弱勢家庭<br>受贈物品品項：麵包，蔬果，罐頭，米，油，乾貨等<br>補充事項：依受贈物品及服務時間實際運作後，再做調整。歡迎善心民眾捐贈物品，幫助弱勢族群。"}},{"type":"Feature","geometry":{"type":"Point","coordinates":[120.4204878,23.9556198,0]},"properties":{"name":"彰化二林萬興站","description":"管理單位: 彰化縣二林鎮萬興社區發展協會<br>服務地點：二林鎮萬興里中央北街40號<br>服務電話： 04-8682287<br>服務時間: 每週一至五，下午2點至5點<br>服務對象: 社區居民及弱勢家庭<br>受贈物品品項： 麵包，蔬菜，水果，乾貨<br>其他補充事項：受贈物品及服務時間，依實際運作後調整"}},{"type":"Feature","geometry":{"type":"Point","coordinates":[120.4362603,23.9071707,0]},"properties":{"name":"彰化二林東勢站","description":"管理單位: 彰化縣二林鎮東勢社區發展協會<br>服務地點：二林鎮東勢里面前巷2-20號<br>                          (東勢社區活動中心)<br>服務電話： 0933-436777<br>服務時間: 每週六，晚上5點至6點30分<br>服務對象: 社區居民及弱勢家庭<br>受贈物品品項： 麵包，蔬菜，水果，乾貨<br>其他補充事項：受贈物品及服務時間，依實際運作後調整"}},{"type":"Feature","geometry":{"type":"Point","coordinates":[120.422138,23.9106131,0]},"properties":{"name":"彰化二林大永站","description":"管理單位：彰化縣二林鎮大永社區發展協會<br>服務地點：二林鎮大永里大永路38號<br>服務電話：04-8902326<br>服務時間：每週二，五晚上5點30∼7點止<br>服務對象：社區居民弱勢家庭<br>受贈物品品項：麵包，蔬果，罐頭，米，油，乾貨等<br>補充事項：依受贈物品及服務時間實際運作後，再做調整。歡迎善心民眾捐贈物品，幫助弱勢族群。"}},{"type":"Feature","geometry":{"type":"Point","coordinates":[120.6856473,23.7538411,0]},"properties":{"name":"南投竹山中正站"}},{"type":"Feature","geometry":{"type":"Point","coordinates":[120.9736033,23.965148,0]},"properties":{"name":"南投埔里東門站"}},{"type":"Feature","geometry":{"type":"Point","coordinates":[120.8692235,23.9358224,0]},"properties":{"name":"南投國姓南港站","description":"管理單位:南投縣國姓鄉港源社區發展協會<br>服務地址:南投縣國姓鄉南港村南港路11-5號<br>服務電話:0921-992481<br>服務時間:"}},{"type":"Feature","geometry":{"type":"Point","coordinates":[120.43753,24.04035,0]},"properties":{"name":"西勢社區發展協會"}},{"type":"Feature","geometry":{"type":"Point","coordinates":[120.663339,24.139733,0]},"properties":{"name":"共享冰箱 Food Sharing Station@自己的房間"}},{"type":"Feature","geometry":{"type":"Point","coordinates":[120.663339,24.139733,0]},"properties":{"name":"共享冰箱 Food Sharing Station@自己的房間"}},{"type":"Feature","geometry":{"type":"Point","coordinates":[120.645469,24.133656,0]},"properties":{"name":"南屯區向心里辦公室"}},{"type":"Feature","geometry":{"type":"Point","coordinates":[120.567286,23.96286,0]},"properties":{"name":"元泰當鋪","description":"員林基督教醫院對面"}},{"type":"Feature","geometry":{"type":"Point","coordinates":[120.692754,24.161717,0]},"properties":{"name":"萬寶當鋪"}},{"type":"Feature","geometry":{"type":"Point","coordinates":[120.658305,24.146282,0]},"properties":{"name":"雷穀食堂"}},{"type":"Feature","geometry":{"type":"Point","coordinates":[120.6907571,24.145399,0]},"properties":{"name":"台中東區富仁站","description":"管理單位:社團法人臺中市東區富仁社區發展協會"}},{"type":"Feature","geometry":{"type":"Point","coordinates":[120.961134,24.807511,0]},"properties":{"name":"新竹市民富社區-棒球場旁邊梯間"}},{"type":"Feature","geometry":{"type":"Point","coordinates":[120.959491,24.819642,0]},"properties":{"name":"新竹市士林社區-境福宮"}},{"type":"Feature","geometry":{"type":"Point","coordinates":[120.981197,24.808368,0]},"properties":{"name":"新竹市天后慈愛崇善會"}},{"type":"Feature","geometry":{"type":"Point","coordinates":[120.907407,24.741769,0]},"properties":{"name":"新竹市內湖社區-順天宮"}},{"type":"Feature","geometry":{"type":"Point","coordinates":[120.934306,24.799455,0]},"properties":{"name":"新竹市樹下社區-靈安宮右方走廊"}},{"type":"Feature","geometry":{"type":"Point","coordinates":[120.972819,24.799768,0]},"properties":{"name":"新竹市下竹社區-青山宮"}},{"type":"Feature","geometry":{"type":"Point","coordinates":[121.011966,24.783358,0]},"properties":{"name":"新竹市科園社區-私立理想圓幼兒園對面"}},{"type":"Feature","geometry":{"type":"Point","coordinates":[120.930437,24.838943,0]},"properties":{"name":"新竹市北濱社區-代天府"}},{"type":"Feature","geometry":{"type":"Point","coordinates":[120.970068,24.798925,0]},"properties":{"name":"新竹市寺前社區-竹蓮寺"}},{"type":"Feature","geometry":{"type":"Point","coordinates":[121.303258,24.969059,0]},"properties":{"name":"桃園八德大勇站","description":"管理單位: 桃園市八德區大勇里社區關懷照顧據點<br>服務地點: 八德區大勇里忠勇街415號<br>服務電話：0933777261<br>服務時間: <br>早上08:00~11:00<br>下午15:00~18:00<br>服務對象: 中.低收入户.急需物資者.<br>受贈物品品項： 麵包·麵條·白米·冷藏食物.日用品等"}},{"type":"Feature","geometry":{"type":"Point","coordinates":[121.294863,24.993511,0]},"properties":{"name":"桃園中正站","description":"管理單位: 福梓社會關懷服務協會<br>服務地點: 桃園區縣府路256巷5弄4號1樓<br>服務電話： 0918-337608<br>服務時間: 10:00-12:00<br>服務對象: 清寒、獨居、隔代教養家庭<br>受贈物品品項： 生活日常、冷藏食品、文具"}},{"type":"Feature","geometry":{"type":"Point","coordinates":[121.2518715,24.9655623,0]},"properties":{"name":"桃園中壢自立站","description":"管理單位: 桃園市慈馨公益關懷協會<br>服務地點: 中壢區永福路1061-1號<br>服務電話： 03-2852178 0963313896<br>服務時間: 周一~周五，下午14：00-17：00<br>服務對象: 慈馨食物銀行個案<br>受贈物品品項： 冷藏、冷凍食品，生活用品<br>其他補充事項："}},{"type":"Feature","geometry":{"type":"Point","coordinates":[121.207665,24.958214,0]},"properties":{"name":"桃園中壢五福站","description":"管理單位: 中壢區五福里辦公處<br>服務地點：中壢區民族路208號<br>服務電話： 電話，03-4015409、0933788423<br>服務時間: 下午16：00-20：00<br>服務對象: 邊緣戶，單親，長者，身障，急需食品資助者<br>受贈物品品項： 冷藏，冷凍食品，生活用品"}},{"type":"Feature","geometry":{"type":"Point","coordinates":[121.088446,24.958191,0]},"properties":{"name":"桃園新屋社子站","description":"管理單位: 桃園市新屋區社子店<br>服務地點: 桃園市新屋區興福路955號<br>服務電話： 0988728097 03-4760356<br>服務時間: 早上08:00-09:00、下午15:00-17:00<br>服務對象: 清寒家庭、中低收入戶、<br>受贈物品品項： 冷藏、冷凍食品、生活用品"}},{"type":"Feature","geometry":{"type":"Point","coordinates":[121.143254,24.907592,0]},"properties":{"name":"桃園楊梅紅梅站","description":"管理單位: 桃園市楊梅區愛心慈善協會<br>服務地點：楊梅區武營街23號<br>服務電話： 03-4788345<br>服務時間: 下午14：00-17：00<br>服務對象: 邊緣戶，單親，長者，身障，急需食品資助者<br>受贈物品品項： 冷藏，冷凍食品，生活用品"}},{"type":"Feature","geometry":{"type":"Point","coordinates":[121.219041,24.901978,0]},"properties":{"name":"桃園平鎮福林站","description":"管理單位:桃園市平鎮區福林店<br>服務地點: 桃園市平鎮區東豐路326號<br>服務電話： 0925-277293；03-4195807<br>服務時間: 早上09:00-10:00；下午15:00-17:00<br>服務對象: 清寒家庭、中低收入戶、<br>受贈物品品項： 冷藏、冷凍食品、生活用品<br>其他補充事項：捐贈前請先撥打電話。"}},{"type":"Feature","geometry":{"type":"Point","coordinates":[121.22241,24.95279,0]},"properties":{"name":"桃園中壢石頭站","description":"管理單位: 中華民國國際慈善文教協會<br>服務地點: 中壢區永樂路33號<br>服務電話： 0955352263<br>服務時間: 上午10:00-12:00<br>服務對象: 清寒家庭<br>受贈物品品項： 冷藏、冷凍食品，生活用品"}},{"type":"Feature","geometry":{"type":"Point","coordinates":[121.169396,24.8873711,0]},"properties":{"name":"桃園中壢復興站","description":"管理單位: 桃園市中壢區復興社區發展拹會<br>服務地點: 中壢區長樂四街24号<br>服務電話：O937804365 <br>服務時間: 早上10.00~11.30<br>下午15.00~17.00<br>服務對象: 中.低收入户.急需物資者.<br>受贈物品品項： 冷藏食物.日用品等."}},{"type":"Feature","geometry":{"type":"Point","coordinates":[121.3491307,24.9873699,0]},"properties":{"name":"桃園龜山大同站","description":"管理單位:桃園市龜山區新福宮慈善愛心協會<br>服務地點: 桃園市龜山區大同路378號<br>服務電話： 0935-119701 ；03-3296877～8<br>服務時間: 暫定下午15:00-17:00(視情況再作調整)<br>服務對象: 社會弱勢族群、清寒家庭、中低收入戶以及無法受政府補助照顧之邊緣人。<br>受贈物品品項： 冷藏、冷凍食品、生活用品"}},{"type":"Feature","geometry":{"type":"Point","coordinates":[121.2771332,24.967528,0]},"properties":{"name":"桃園八德茄苳站"}},{"type":"Feature","geometry":{"type":"Point","coordinates":[121.1713191,24.920816,0]},"properties":{"name":"桃園楊梅永青站\n","description":"管理單位: 桃園市永青社區發展協會<br>服務地點: 楊梅區青山五街17號<br>服務電話： 03-4961611<br>服務時間:周一至周日 am: 8:00~pm:5:00<br>服務對象: 弱勢族群、獨居老人、單親家庭、中、低收入戶…等<br>受贈物品品項：麵包、調味包、調味醬包、麵條…等"}},{"type":"Feature","geometry":{"type":"Point","coordinates":[121.2975682,25.0559259,0]},"properties":{"name":"桃園蘆竹中山站\n","description":"管理單位： 桃園市蘆竹區中山社區發展協會 <br>服務地點： 桃園市蘆竹區中山路125巷3號<br>服務電話：0918-218827 <br>服務時間：周一至周日am: 10:00~pm:5:00<br>服務對象：弱勢族群、獨居老人、單親家庭、中、低收入戶…等<br>受贈物品品項：麵包、調味包、調味醬包、麵條…等 <br>其他補充事項："}},{"type":"Feature","geometry":{"type":"Point","coordinates":[120.582468,23.077464,0]},"properties":{"name":"高雄甲仙大田站","description":"管理單位: 高雄市甲仙區大田社區發展協會<br>服務地點: 高雄市甲仙區大田里新興路49-1號<br>服務電話: 07-6752640 0921233279<br>服務時間: 週一到週五11：00-12：00<br>服務對象: 獨居老人、低收戶、中低收戶、弱勢家庭。<br>受贈物品品項：主食類、生鮮食品、冷藏冷凍食品、水果類。 <br>其他補充事項：遇到國定假日公休。<br>分享食物分享愛-歡迎大家共同惜食愛地球"}},{"type":"Feature","geometry":{"type":"Point","coordinates":[120.463223,22.945846,0]},"properties":{"name":"高雄內門站","description":"管理單位: 高雄市內門區內門社區發展協會<br>服務地點: 高雄市內門區內門里內門56之10號<br>服務電話: 07-6674134<br>服務時間: 週一到週五09:00-11:00<br>服務對象:據點長輩、弱勢家庭。<br>受贈物品品項：主食類、生鮮食品、麵包、冷藏冷凍食品、水果類。 "}},{"type":"Feature","geometry":{"type":"Point","coordinates":[120.481825,22.890882,0]},"properties":{"name":"高雄旗山竹峰站","description":"管理單位: 旗山老街發展協會<br>服務地點: 高雄市旗山區中山路243號<br>服務電話: 07-6616056、0933-693324<br>服務時間: 不定<br>服務對象: 弱勢、中低、獨居長者、凝愛關懷協會課服班學童。<br>受贈物品品項： 主食類、生鮮食品，青菜，水果等<br>其他補充事項：冰箱設有群組用賴聯繫，在賴回應如何領取，無手機經聯絡後約定時間需求者才可領取或送達需求者住處。"}},{"type":"Feature","geometry":{"type":"Point","coordinates":[120.330862,22.639529,0]},"properties":{"name":"高雄三民寶安站","description":"管理單位: 高雄市佛心慈愛協會<br>服務地點:高雄市三民區寶安里覺民路531巷37弄10號<br>服務電話: 07-3809734<br>服務時間: 週二、三、四16:30-17:30<br>服務對象: 弱勢家庭<br>受贈物品品項：保存完整之食品、生鮮、麵包蔬果<br>其他補充事項："}},{"type":"Feature","geometry":{"type":"Point","coordinates":[120.319455,22.645982,0]},"properties":{"name":"高雄三民正興站","description":"管理單位: 快樂正興社區發展協會<br>服務地點: 高雄市三民區建安街32巷15號<br>服務電話: 07-3809008<br>服務時間: 週二、三、四17:00-19:00<br>服務對象:需要協助的家庭。<br>受贈物品品項：乾貨生鮮食品、麵包、冷藏冷凍食品、水果類。"}},{"type":"Feature","geometry":{"type":"Point","coordinates":[120.302568,22.648704,0]},"properties":{"name":"高雄三民安泰站","description":"管理單位: 社團法人高雄市三民區安泰社區發展協會<br>服務地點: 高雄市三民區重慶街274號<br>服務電話: 0926723468 073239699<br>服務時間: 週一到週五16:30-17:30<br>服務對象: 課輔班學童、社區獨居老人、日託班老人、中低收入戶、邊緣戶暨弱勢族群。<br>受贈物品品項： 米、油、牙膏、牙刷、衛生紙、泡麵、麵包、烘焙食品、蔬菜、水果、魚類、肉類食品、牛奶、罐頭、亞培營養補充品"}},{"type":"Feature","geometry":{"type":"Point","coordinates":[120.316794,22.652113,0]},"properties":{"name":"高雄三民灣復站","description":"管理單位: 社團法人高雄市慈善團體聯合總會<br>服務地點: 高雄市三民區灣復街32號<br>服務電話: 07-3925590<br>服務時間: 週二到週六16：00-17：00<br>服務對象：弱勢家庭優先、多於食材也與社區民眾分享 <br>受贈物品品項：生鮮蔬果、冷凍食品、乾貨皆可<br>其他補充事項："}},{"type":"Feature","geometry":{"type":"Point","coordinates":[120.3156357,22.6310043,0]},"properties":{"name":"高雄新興文昌站","description":"管理單位: 高雄市新興區文昌社區發展協會<br>服務地點: 高雄市新興區尚義街112巷66號<br>服務電話: 0909464945。、07 2229180<br>服務時間: 10：00---22：00<br>服務對象: 對於食物不浪費及能善用食才的普羅大眾都是對象<br>受贈物品品項： 蔬食，麵包，拜拜禮品，家庭、商家剩食，冷凍食品(即食料理包)，飲料<br>其他補充事項：附近有商家或個人看到了食物銀行的標誌也認同的，也會帶食才過來分享, 有些也是拆開過的，但東西無慮"}},{"type":"Feature","geometry":{"type":"Point","coordinates":[120.325579,22.619095,0]},"properties":{"name":"高雄苓雅林榮站","description":"管理單位: 新林榮社區發展協會<br>服務地點: 高雄市苓雅區凱旋三路885號<br>服務電話: 07-7155855、0932993091<br>服務時間: 10:00～18:00<br>服務對象: 課後照顧學童、單親、邊緣戶、獨居老人。<br>受贈物品品項： 主食類、生鮮食品、冷藏冷凍食品。<br>其他補充事項：全年無休<br>分享食物分享愛-歡迎大家共同惜食愛地球"}},{"type":"Feature","geometry":{"type":"Point","coordinates":[120.275779,22.60347,0]},"properties":{"name":"高雄旗津實踐站","description":"管理單位: 國立中山大學社會科學院<br>服務地點: 805 高雄市旗津區北汕尾巷6號<br>服務電話: 0912777046<br>服務時間: 每周一、三、五下午3點~5點發放食物<br>服務對象: 弱勢團體、獨居老人<br>受贈物品品項： 主食類、麵包類、生鮮食品、冷藏冷凍食品。<br>其他補充事項：遇到國定假日公休"}},{"type":"Feature","geometry":{"type":"Point","coordinates":[120.288271,22.671315,0]},"properties":{"name":"高雄左營果貿站","description":"管理單位: 高雄左營果貿社區果貿發展協會<br>服務地點: 果貿發展協會圖書館<br>服務電話: 07-5880160<br>服務時間: 每週一、五下午3:30～4:30<br>服務對象: 弱勢家庭與獨居長輩<br>受贈物品品項： 蔬菜、水果，冷凍包子饅頭粽子，熟素食等<br>其他補充事項：國定假日休息，領取者每次均有登記與統計人次"}},{"type":"Feature","geometry":{"type":"Point","coordinates":[120.365097,22.564705,0]},"properties":{"name":"高雄小港山明站","description":"管理單位: 社團法人高雄市愛之船慈善會<br>服務地點: 高雄市小港區山明路281巷40號<br>服務電話: 07-8066776<br>服務時間: 週一、四：14：00-16：00、週六：09：00-11：00<br>服務對象:弱勢家庭<br>受贈物品品項： 蔬菜、水果，冷凍包子饅頭粽子，熟素食等"}},{"type":"Feature","geometry":{"type":"Point","coordinates":[120.3148903,22.6349304,0]},"properties":{"name":"高雄新興民安站","description":"管理單位：高雄市新興區民安社區發展協會<br>服務地點：高雄市新興區尚文街14號<br>服務電話: （07）2237797、0933-63579<br>服務時間：週一到週五9~12點<br>服務對象：弱勢家庭、低收入戶、社區服務<br>受贈物品品項：蔬果生鮮、冷凍食品"}},{"type":"Feature","geometry":{"type":"Point","coordinates":[120.572888,22.754908,0]},"properties":{"name":"屏東鹽埔鹽南站","description":"管理單位：屏東縣慧光慈善功德會<br>服務地點：屏東縣鹽埔鄉鹽南村勝利路42號<br>服務電話：(08)793-8231、0966-738293<br>服務時間：每週四下午2-5點<br>服務對象：屏東縣鹽埔區家庭福利服務中心服務的弱勢族群、鹽埔鄉鄉公所服務<br> 的弱勢族群、獨居老人、鄰近學區課後照顧學童。<br>受贈物品品項：主食類、生鮮食品、冷藏冷凍食品。<br>其他補充事項：遇到國定假日公休、本週未有捐贈食材公休(請記得來電詢問)。<br>分享食物分享愛-歡迎大家共同惜食愛地球"}},{"type":"Feature","geometry":{"type":"Point","coordinates":[120.610146,22.72562,0]},"properties":{"name":"屏東鹽埔鹽中站","description":"管理單位：屏東縣慧光慈善功德會<br>服務地點：屏東縣鹽埔鄉豐年路36-2號<br>服務電話：(08)793-8231、0966-738293<br>服務時間：每週五下午2-5點<br>服務對象：屏東縣鹽埔區家庭福利服務中心服務的弱勢族群、鹽埔鄉鄉公所服務<br> 的弱勢族群、獨居老人。<br>受贈物品品項：主食類、生鮮食品、冷藏冷凍食品。<br>其他補充事項：遇到國定假日公休、本週未有捐贈食材公休(請記得來電詢問)。<br>分享食物分享愛-歡迎大家共同惜食愛地球"}},{"type":"Feature","geometry":{"type":"Point","coordinates":[120.611861,22.476313,0]},"properties":{"name":"屏東新埤餉潭站","description":"管理單位：屏東縣慧光慈善功德會<br>服務地點：屏東縣新埤鄉餉潭村龍潭路117號<br>服務電話：(08)793-8231、0966-738293<br>服務時間：週三下午2點半到4點<br>服務對象：課後照顧學童、夜光天使學童、獨居老人。<br>受贈物品品項：主食類、生鮮食品、冷藏冷凍食品。<br>其他補充事項：遇到國定假日公休、本週未有捐贈食材公休(請記得來電詢問)。<br>分享食物分享愛-歡迎大家共同惜食愛地球"}},{"type":"Feature","geometry":{"type":"Point","coordinates":[120.556306,22.6969127,0]},"properties":{"name":"屏東長治繁華站","description":"管理單位: 屏東縣私立椰子園老人養護之家<br>服務地點: 屏東縣長治繁華村水源路126之3號<br>服務電話： 08-7622885<br>服務時間: 全日24小時<br>服務對象: 不限身份<br>受贈物品品項：麵包、土司、菓乾、料理包、餅乾、米粉、麵條、蘆筍汁、紅茶等罐裝飲料 <br>其他補充事項：無"}},{"type":"Feature","geometry":{"type":"Point","coordinates":[120.314364,22.724327,0]},"properties":{"name":"幸運草餐飲店"}},{"type":"Feature","geometry":{"type":"Point","coordinates":[120.316801,22.621339,0]},"properties":{"name":"阿榮通訊行-愛心食物銀行"}},{"type":"Feature","geometry":{"type":"Point","coordinates":[120.350208,22.645714,0]},"properties":{"name":"阿們愛心冰箱(Solidarity Fridge)"}},{"type":"Feature","geometry":{"type":"Point","coordinates":[120.5262781,23.6990178,0]},"properties":{"name":"雲林斗六鎮西站","description":"管理單位:雲林縣政府社會處"}},{"type":"Feature","geometry":{"type":"Point","coordinates":[121.77115,24.8217786,0]},"properties":{"name":"宜蘭礁溪六結Ⅰ站","description":"<img src=\"https://doc-0c-84-mymaps.googleusercontent.com/untrusted/hostedimage/f3b2dqtipj61dpr0r4ft5or71g/of37qqqtnkehdt4m7gp18b57r8/1578204000000/88G9EWVEQtrnDFVimK5EeSaMGvg5_rm9/14920644892035454765/1AF2TALqn4zsdx3L3xvTUGHFAgrAUuIvx5Ea7nVE4z6SkZLdVA81TkjWCSxrTWxiinPP9NnE960AbNs8Y717kFPGQMyn_8MZvafU2Tc3ysor2TC8GpJ1ELt6NAXKzME1hVsGgCzyPvYQyeZKEfzm0JNb8QEujqIeiMMDiGzVmUS0SjDvxgMSQ1jTLBYp9hOrXNMZC3fyPkPRUNNhPk98dSgpWcrIGDaryMiJX9o35BuQ3OxRbAUlRYuKqIkBu7AsaSC2RMnTm7N4k9YKT7tA54G3YgpUJsAGYnA?session=0&fife\" height=\"200\" width=\"auto\" /><br><br>管理單位:礁溪鄉林家豬腸冬粉名店<br>服務地點:宜蘭礁溪鄉中山路一段276號<br>服務電話:03-9882030<br>服務時間:<br>受贈品項:","gx_media_links":"https://doc-0c-84-mymaps.googleusercontent.com/untrusted/hostedimage/f3b2dqtipj61dpr0r4ft5or71g/of37qqqtnkehdt4m7gp18b57r8/1578204000000/88G9EWVEQtrnDFVimK5EeSaMGvg5_rm9/14920644892035454765/1AF2TALqn4zsdx3L3xvTUGHFAgrAUuIvx5Ea7nVE4z6SkZLdVA81TkjWCSxrTWxiinPP9NnE960AbNs8Y717kFPGQMyn_8MZvafU2Tc3ysor2TC8GpJ1ELt6NAXKzME1hVsGgCzyPvYQyeZKEfzm0JNb8QEujqIeiMMDiGzVmUS0SjDvxgMSQ1jTLBYp9hOrXNMZC3fyPkPRUNNhPk98dSgpWcrIGDaryMiJX9o35BuQ3OxRbAUlRYuKqIkBu7AsaSC2RMnTm7N4k9YKT7tA54G3YgpUJsAGYnA?session=0&fife"}},{"type":"Feature","geometry":{"type":"Point","coordinates":[121.7708378,24.820466,0]},"properties":{"name":"宜蘭礁溪六結Ⅱ站","description":"管理單位:社團法人宜蘭縣蓮記關懷協會"}},{"type":"Feature","geometry":{"type":"Point","coordinates":[121.819693,24.853961,0]},"properties":{"name":"宜蘭頭城新建站","description":"<img src=\"https://doc-04-84-mymaps.googleusercontent.com/untrusted/hostedimage/f3b2dqtipj61dpr0r4ft5or71g/m8ujh437r2onl22jpq6rlgqd7c/1578204000000/88G9EWVEQtrnDFVimK5EeSaMGvg5_rm9/14920644892035454765/1AF2TALp7_ONm0cD_GYBP08V2-3gzesIOEKJ9AFLsRNUw7w5rfrZki3ypo_jy_cIXK_vtTZyA5hxdVwpC_AI1skznYuwwi3cyLXWsVTwxNt6KQSYBk-7oO1Q3oQv1kwpQ0liB3CEGHQheLz4EG_UKwyPlPzCccvYeuv_LsCKcgTG-MhBtgXOe65N_UKztYJ4wb1-ZuFNC5eiuOCy5fOhyj1UFGIGpAtc1PThpYPSD8Ba4VMMp2-tnLfq2MNDbYLMY_dztGay77DFOljIa5Mnhu2-wlkVkNYZ2UA?session=0&fife\" height=\"200\" width=\"auto\" /><br><br>管理單位:頭城鎮新建社區發展協會<br>服務地點:頭城鎮新建里新興路234-1號 <br>服務電話：0937一159535<br>服務時間:每周1-5早上8点3O分到中午12点止<br>服務對象:需要熟食弱勢民衆<br>受贈物品品項：品項：熟食，乾糧<br>其他補充事項：週六，日，國定假日休息","gx_media_links":"https://doc-04-84-mymaps.googleusercontent.com/untrusted/hostedimage/f3b2dqtipj61dpr0r4ft5or71g/m8ujh437r2onl22jpq6rlgqd7c/1578204000000/88G9EWVEQtrnDFVimK5EeSaMGvg5_rm9/14920644892035454765/1AF2TALp7_ONm0cD_GYBP08V2-3gzesIOEKJ9AFLsRNUw7w5rfrZki3ypo_jy_cIXK_vtTZyA5hxdVwpC_AI1skznYuwwi3cyLXWsVTwxNt6KQSYBk-7oO1Q3oQv1kwpQ0liB3CEGHQheLz4EG_UKwyPlPzCccvYeuv_LsCKcgTG-MhBtgXOe65N_UKztYJ4wb1-ZuFNC5eiuOCy5fOhyj1UFGIGpAtc1PThpYPSD8Ba4VMMp2-tnLfq2MNDbYLMY_dztGay77DFOljIa5Mnhu2-wlkVkNYZ2UA?session=0&fife"}},{"type":"Feature","geometry":{"type":"Point","coordinates":[121.7619879,24.7890663,0]},"properties":{"name":"宜蘭礁溪吳沙站","description":"<img src=\"https://doc-08-84-mymaps.googleusercontent.com/untrusted/hostedimage/f3b2dqtipj61dpr0r4ft5or71g/hedfjh1vffhsebt2mrrm5bj1rg/1578204000000/88G9EWVEQtrnDFVimK5EeSaMGvg5_rm9/14920644892035454765/1AF2TALqab0tP-k9Y06hIl3-8SUpSiYkml6H7l4deEv5FZCf2HEXKJHFs1RPtsTll2H4YQ67dCkony1MJXYh0oJN8mmxTR6fzThdkP3EEoRtYHbw_NeD7kWY2LqgvHIOL5Q1LqvAbOksTY5J6Jv6Tt-G-wLlj7j83y-5HPzzo-2SdGVb40LdXfYL5_8s8V9uOKhGFuCzWYTR17UdAX2Nq1Gkrv6tx2pEwCy48f37zwznHYtly3JkrBtSY7CznNje5FOtqM98GKLI9WQu3aWWVXpxgCIuGWyWGHQ?session=0&fife\" height=\"200\" width=\"auto\" /><br><br>管理單位:社團法人宜蘭縣愛加倍關懷協會<br>服務地點:宜蘭縣礁溪鄉礁溪路一段276號<br>服務電話：(03）9289995<br>服務時間:每星期一至五，8點至下午16點<br>服務對象:<br>1.有意願設置冰箱的公益團體<br>2.鄰近有食物需要之社區居民<br>服務項目：<br>1.宜蘭社區冰箱推廣服務平台<br>2.受贈物品品項：麵包，餅乾，蔬菜","gx_media_links":"https://doc-08-84-mymaps.googleusercontent.com/untrusted/hostedimage/f3b2dqtipj61dpr0r4ft5or71g/hedfjh1vffhsebt2mrrm5bj1rg/1578204000000/88G9EWVEQtrnDFVimK5EeSaMGvg5_rm9/14920644892035454765/1AF2TALqab0tP-k9Y06hIl3-8SUpSiYkml6H7l4deEv5FZCf2HEXKJHFs1RPtsTll2H4YQ67dCkony1MJXYh0oJN8mmxTR6fzThdkP3EEoRtYHbw_NeD7kWY2LqgvHIOL5Q1LqvAbOksTY5J6Jv6Tt-G-wLlj7j83y-5HPzzo-2SdGVb40LdXfYL5_8s8V9uOKhGFuCzWYTR17UdAX2Nq1Gkrv6tx2pEwCy48f37zwznHYtly3JkrBtSY7CznNje5FOtqM98GKLI9WQu3aWWVXpxgCIuGWyWGHQ?session=0&fife"}},{"type":"Feature","geometry":{"type":"Point","coordinates":[121.7725065,24.8267059,0]},"properties":{"name":"宜蘭礁溪德陽站","description":"<img src=\"https://doc-0o-84-mymaps.googleusercontent.com/untrusted/hostedimage/f3b2dqtipj61dpr0r4ft5or71g/fv4unohkj6s18hos9k2dfddsho/1578204000000/88G9EWVEQtrnDFVimK5EeSaMGvg5_rm9/14920644892035454765/1AF2TALqeU-inEvXveE8A4J3FewsiKsDlq0czRauhY8ROMmB5W2PHR5bqh9PMbCPwfMFT_8cEcoagQtIAmslX6MsWKnDdu0pPktyqiVCnj4hwmrW30ZdijqfsmZVTR2eCTXyMBmRL-Yn9J2q6bA9fyf6_oomzYkFj1pZHSK_lZCcOXDLUjyJAOPAf8A_NmJRLtVbppdkWCoiqrnsaDKWn0IgJUrAPd4aU1Azn9fzJCVLnpOLkfxoSoq-EDvKCbb_L9v64KHrA72EvUwAP2INWIMnjpZLoyIpTDQ?session=0&fife\" height=\"200\" width=\"auto\" /><br><br>管理單位:礁溪溫泉文化協會<br>服務地點:湯圍街57號<br>服務電話：039-881260<br>服務時間:每天下午3-4點<br>服務對象:需要熟食弱勢民眾<br>受贈物品品項：熟食<br>其他補充事項：週三休息","gx_media_links":"https://doc-0o-84-mymaps.googleusercontent.com/untrusted/hostedimage/f3b2dqtipj61dpr0r4ft5or71g/fv4unohkj6s18hos9k2dfddsho/1578204000000/88G9EWVEQtrnDFVimK5EeSaMGvg5_rm9/14920644892035454765/1AF2TALqeU-inEvXveE8A4J3FewsiKsDlq0czRauhY8ROMmB5W2PHR5bqh9PMbCPwfMFT_8cEcoagQtIAmslX6MsWKnDdu0pPktyqiVCnj4hwmrW30ZdijqfsmZVTR2eCTXyMBmRL-Yn9J2q6bA9fyf6_oomzYkFj1pZHSK_lZCcOXDLUjyJAOPAf8A_NmJRLtVbppdkWCoiqrnsaDKWn0IgJUrAPd4aU1Azn9fzJCVLnpOLkfxoSoq-EDvKCbb_L9v64KHrA72EvUwAP2INWIMnjpZLoyIpTDQ?session=0&fife"}},{"type":"Feature","geometry":{"type":"Point","coordinates":[121.781237,24.8344,0]},"properties":{"name":"宜蘭礁溪玉石站","description":"<img src=\"https://doc-00-84-mymaps.googleusercontent.com/untrusted/hostedimage/f3b2dqtipj61dpr0r4ft5or71g/c53bhfep3fqe8ttiq97p75oqcg/1578204000000/88G9EWVEQtrnDFVimK5EeSaMGvg5_rm9/14920644892035454765/1AF2TALpnMVLvtThyLhAM8KSjkJvM8fKY6ORZgwcbriyYa3aizizuopXQV2DkbCT7A-Xgyb_rIbtW9vvOLlpNX4-G7UP5lLp3sz-mWRPsosN11mh8wYDUPA2_mXM8zL1iThl61AZbmJ4SzBPoWaUV6QqVXU7MXufq6Bw9i0Vy801hU9ywkG7lPhzUhjrJgM8V2EEF-UhD7cgTsKzl-esBKlE6rNns0xxiVURTsHhJ_4Dg6NTSvN8au-BeKom4GvBHw_qSWSbg-ehhMG1ZamsLTgf7wqqHKJKZPQ?session=0&fife\" height=\"200\" width=\"auto\" /><br><br>管理單位:宜蘭縣礁溪鄉老如意愛心商店<br>服務地點:宜蘭礁溪鄉礁溪路六段220號<br>服務電話:03-9885099<br>服務時間:<br>受贈品項:","gx_media_links":"https://doc-00-84-mymaps.googleusercontent.com/untrusted/hostedimage/f3b2dqtipj61dpr0r4ft5or71g/c53bhfep3fqe8ttiq97p75oqcg/1578204000000/88G9EWVEQtrnDFVimK5EeSaMGvg5_rm9/14920644892035454765/1AF2TALpnMVLvtThyLhAM8KSjkJvM8fKY6ORZgwcbriyYa3aizizuopXQV2DkbCT7A-Xgyb_rIbtW9vvOLlpNX4-G7UP5lLp3sz-mWRPsosN11mh8wYDUPA2_mXM8zL1iThl61AZbmJ4SzBPoWaUV6QqVXU7MXufq6Bw9i0Vy801hU9ywkG7lPhzUhjrJgM8V2EEF-UhD7cgTsKzl-esBKlE6rNns0xxiVURTsHhJ_4Dg6NTSvN8au-BeKom4GvBHw_qSWSbg-ehhMG1ZamsLTgf7wqqHKJKZPQ?session=0&fife"}},{"type":"Feature","geometry":{"type":"Point","coordinates":[121.777065,24.763114,0]},"properties":{"name":"宜蘭七張站","description":"<img src=\"https://doc-08-84-mymaps.googleusercontent.com/untrusted/hostedimage/f3b2dqtipj61dpr0r4ft5or71g/ct7l26vqt6ikgctu3r7spbaspk/1578204000000/88G9EWVEQtrnDFVimK5EeSaMGvg5_rm9/14920644892035454765/1AF2TALrykWZ5zCO8i4vpqdm4CnB1iaw2PgZTvUkRoADskK30muLY648PkoxwaSVOouducqH5cj2ArdHmXqWaM-p_IVsRVB3FBpHdEjOgd0HdY0OGxuPhJeECDqY82bYLKZzulodubLGRXLXp3UiVgCnqMSYtmxaB43qEYj1vQ0fwgPfCSpLtMhhCnalm_BHssv-6t55NiW6jrFcEvrjvWMbNh2_vNg_T0S0NL4_oNVMoti1nlB7ZTtIqtTROGQxioKOgEFReV7hbGjTuMabOPzcL2u__vMSPIg?session=0&fife\" height=\"200\" width=\"auto\" /><br><br>管理單位:宜蘭市七張社區活動中心<br>服務地點:宜蘭縣宜蘭市七張路48-1號<br>服務電話:0932-359133<br>服務時間:<br>受贈品項:","gx_media_links":"https://doc-08-84-mymaps.googleusercontent.com/untrusted/hostedimage/f3b2dqtipj61dpr0r4ft5or71g/ct7l26vqt6ikgctu3r7spbaspk/1578204000000/88G9EWVEQtrnDFVimK5EeSaMGvg5_rm9/14920644892035454765/1AF2TALrykWZ5zCO8i4vpqdm4CnB1iaw2PgZTvUkRoADskK30muLY648PkoxwaSVOouducqH5cj2ArdHmXqWaM-p_IVsRVB3FBpHdEjOgd0HdY0OGxuPhJeECDqY82bYLKZzulodubLGRXLXp3UiVgCnqMSYtmxaB43qEYj1vQ0fwgPfCSpLtMhhCnalm_BHssv-6t55NiW6jrFcEvrjvWMbNh2_vNg_T0S0NL4_oNVMoti1nlB7ZTtIqtTROGQxioKOgEFReV7hbGjTuMabOPzcL2u__vMSPIg?session=0&fife"}},{"type":"Feature","geometry":{"type":"Point","coordinates":[121.746288,24.741457,0]},"properties":{"name":"宜蘭進士站","description":"管理單位:宜蘭市進士社區發展協會<br>服務地點:宜蘭縣宜蘭市進士路53-1號<br>服務電話：03-9312049<br>服務時間:週一至週五 08:00-17:00<br>服務對象:有需要的居民朋友<br>受贈物品品項：麵包、餅乾、蔬果，蔬菜<br>其他補充事項：日常生活用品"}},{"type":"Feature","geometry":{"type":"Point","coordinates":[121.754163,24.754964,0]},"properties":{"name":"宜蘭大新站","description":"<img src=\"https://doc-0c-84-mymaps.googleusercontent.com/untrusted/hostedimage/f3b2dqtipj61dpr0r4ft5or71g/4oqus67851hg8muld9mmdn1kl8/1578204000000/88G9EWVEQtrnDFVimK5EeSaMGvg5_rm9/14920644892035454765/1AF2TALpNvmJh2ES1JO9xoXP1CC8D4-24NOrw_evzsjz7h2O1qpBf5phtV5k4FgP3bi9Q56vzbSKZ83hq0qIwiMwdRKFbolapdnjas43A2yyC--cJoiRgxz8mkwquhTR2Uex91abLxscr-vqEL7EkaIrKu9tjYYn3SmS24GzDr7olyI1hmODy7WWboahkPiW9S6XwRttZGHt1euDLrSWocBxJpEeBJn58G-XbDyspfotL5UJCK9Onj9A07Ku1OPxI3wp7nZ6zGQCsGBL_Vjs8o_SWQSdt7KFJTQ?session=0&fife\" height=\"200\" width=\"auto\" /><br><br>管理單位:基督徒宜蘭禮拜堂<br>服務地點:宜蘭縣宜蘭市舊城東路20號<br>服務電話：03-9322454<br>服務時間:週二至週日08:00-17:00<br>服務對象:有需要的居民朋友<br>受贈物品品項：麵包、餅乾、蔬果，蔬菜<br>其他補充事項：日常生活用品","gx_media_links":"https://doc-0c-84-mymaps.googleusercontent.com/untrusted/hostedimage/f3b2dqtipj61dpr0r4ft5or71g/4oqus67851hg8muld9mmdn1kl8/1578204000000/88G9EWVEQtrnDFVimK5EeSaMGvg5_rm9/14920644892035454765/1AF2TALpNvmJh2ES1JO9xoXP1CC8D4-24NOrw_evzsjz7h2O1qpBf5phtV5k4FgP3bi9Q56vzbSKZ83hq0qIwiMwdRKFbolapdnjas43A2yyC--cJoiRgxz8mkwquhTR2Uex91abLxscr-vqEL7EkaIrKu9tjYYn3SmS24GzDr7olyI1hmODy7WWboahkPiW9S6XwRttZGHt1euDLrSWocBxJpEeBJn58G-XbDyspfotL5UJCK9Onj9A07Ku1OPxI3wp7nZ6zGQCsGBL_Vjs8o_SWQSdt7KFJTQ?session=0&fife"}},{"type":"Feature","geometry":{"type":"Point","coordinates":[121.7502903,24.7520476,0]},"properties":{"name":"宜蘭民族站","description":"<img src=\"https://doc-10-84-mymaps.googleusercontent.com/untrusted/hostedimage/f3b2dqtipj61dpr0r4ft5or71g/oabckd4ih8sr2o33nrl0m9vuhs/1578204000000/88G9EWVEQtrnDFVimK5EeSaMGvg5_rm9/14920644892035454765/1AF2TALoczskyQE9KjhPiy3aijSGHufEBaMwPFjFKF4byBNs6zEqEiDyHX2gHdUNZVSQ-CRuo61inQBf8569-5WkShq4-RbDdy3_FeIWlRUa26PTUGGjI4aXoRgm5kuEtviVEJ56iEVXIottgRHyYt8ZjPE-CM8oGlxdBd_DfZ9dMXRnCaMOf_7NRFgackHRJXjS_xaO2GOgd4nztpdPbG3D9I9EF28gJ6gF2cILSTwarFOdvkNTOp7XXkUZXWoJblUcZQx775VGGS8jWmFIiu22q1C0ogssAhQ?session=0&fife\" height=\"200\" width=\"auto\" /><br><br>管理單位:社團法人宜蘭縣康復之友協會<br>服務地點:宜蘭縣宜蘭市神農路二段57巷23號<br>服務電話：03-9333710<br>服務時間:週一至週五 08:00-17:00<br>服務對象:有需要的居民朋友<br>受贈物品品項：麵包、餅乾、麵條、米粉、蔬果<br>其他補充事項：日常生活用品","gx_media_links":"https://doc-10-84-mymaps.googleusercontent.com/untrusted/hostedimage/f3b2dqtipj61dpr0r4ft5or71g/oabckd4ih8sr2o33nrl0m9vuhs/1578204000000/88G9EWVEQtrnDFVimK5EeSaMGvg5_rm9/14920644892035454765/1AF2TALoczskyQE9KjhPiy3aijSGHufEBaMwPFjFKF4byBNs6zEqEiDyHX2gHdUNZVSQ-CRuo61inQBf8569-5WkShq4-RbDdy3_FeIWlRUa26PTUGGjI4aXoRgm5kuEtviVEJ56iEVXIottgRHyYt8ZjPE-CM8oGlxdBd_DfZ9dMXRnCaMOf_7NRFgackHRJXjS_xaO2GOgd4nztpdPbG3D9I9EF28gJ6gF2cILSTwarFOdvkNTOp7XXkUZXWoJblUcZQx775VGGS8jWmFIiu22q1C0ogssAhQ?session=0&fife"}},{"type":"Feature","geometry":{"type":"Point","coordinates":[121.7400181,24.7463556,0]},"properties":{"name":"宜蘭思源站","description":"<img src=\"https://doc-10-84-mymaps.googleusercontent.com/untrusted/hostedimage/f3b2dqtipj61dpr0r4ft5or71g/k7o02kcbje7jiqrvnet7ubpdlc/1578204000000/88G9EWVEQtrnDFVimK5EeSaMGvg5_rm9/14920644892035454765/1AF2TALpKWZkJP_B4CWOnAhdpGa5M1E7VlAbqyFTOwM5Fhbt1FJEY1ii4UNZFFrZ8YLor8TTypjTyyk9TQ_UUCnBObf4lbjQC4VdKe-yUin3Ack3eUX11hmkEYPzk5tfCkdDe2FxntUFhk6BXu-D74zxNxdfnYNC8M_6jqbPlhATQyK-VstiWYZHDwQzbqH4mQQkmXf1hn_D3rm9au6YYQyow5LsVrh7L6aHfK6DEnTcgITTbwL7qZn9YgwPL9xbsuILDsRbzTnik42B6hku0xTusrTWd6LDntg?session=0&fife\" height=\"200\" width=\"auto\" /><br><br>管理單位:財團法人基督教會宜蘭靈糧堂<br>服務地點:宜蘭市女中路三段102號4樓<br>服務電話：03-9358483<br>服務時間:週一至週六 08:00-17:30<br>                 週日08：00-14：00<br>服務對象:有需要的居民朋友、牛鬥地區長者<br>受贈物品品項：麵包、餅乾、蔬果等<br>其他補充事項：日常生活用品","gx_media_links":"https://doc-10-84-mymaps.googleusercontent.com/untrusted/hostedimage/f3b2dqtipj61dpr0r4ft5or71g/k7o02kcbje7jiqrvnet7ubpdlc/1578204000000/88G9EWVEQtrnDFVimK5EeSaMGvg5_rm9/14920644892035454765/1AF2TALpKWZkJP_B4CWOnAhdpGa5M1E7VlAbqyFTOwM5Fhbt1FJEY1ii4UNZFFrZ8YLor8TTypjTyyk9TQ_UUCnBObf4lbjQC4VdKe-yUin3Ack3eUX11hmkEYPzk5tfCkdDe2FxntUFhk6BXu-D74zxNxdfnYNC8M_6jqbPlhATQyK-VstiWYZHDwQzbqH4mQQkmXf1hn_D3rm9au6YYQyow5LsVrh7L6aHfK6DEnTcgITTbwL7qZn9YgwPL9xbsuILDsRbzTnik42B6hku0xTusrTWd6LDntg?session=0&fife"}},{"type":"Feature","geometry":{"type":"Point","coordinates":[121.764039,24.6827816,0]},"properties":{"name":"宜蘭羅東樹林站","description":"<img src=\"https://doc-0k-84-mymaps.googleusercontent.com/untrusted/hostedimage/f3b2dqtipj61dpr0r4ft5or71g/01noricopchbo6nkmkrpfrdod0/1578204000000/88G9EWVEQtrnDFVimK5EeSaMGvg5_rm9/14920644892035454765/1AF2TALp60TTqFgrnPj01uJawOstGrDuXX3PR3-lFnnG9hEmP5i4lcTkq-PHcw_DEt4GZ11enzzLziQ3C5gEUrxsMLITxNVFMpjdpfA2aS8TX_-KuorBve2MaTaGLcBC52nzzQQU81o6hcEcAyjpns-hUH1-VDomsygN-z-A5QeXe5RDEbwuokWe3k31IGDMBOiUfT9JPH8HBjUBcmtCK6V51-KIBoqaKOZ-DDAS09FKKR2pnfnGCdaUnG1fOEp4f5IaqZxY_EqwYL8GRkqe2BvZw172EKo-vAg?session=0&fife\" height=\"200\" width=\"auto\" /><br><br>管理單位:康復社區復健中心<br>服務地點:宜蘭縣羅東鎮樹人路25號<br>服務電話：03-9543349<br>服務時間:週一至週五 08:00-16:00<br>服務對象:有需要的居民朋友<br>受贈物品品項：麵包、餅乾、麵條、米粉、蔬果<br>其他補充事項：日常生活用品","gx_media_links":"https://doc-0k-84-mymaps.googleusercontent.com/untrusted/hostedimage/f3b2dqtipj61dpr0r4ft5or71g/01noricopchbo6nkmkrpfrdod0/1578204000000/88G9EWVEQtrnDFVimK5EeSaMGvg5_rm9/14920644892035454765/1AF2TALp60TTqFgrnPj01uJawOstGrDuXX3PR3-lFnnG9hEmP5i4lcTkq-PHcw_DEt4GZ11enzzLziQ3C5gEUrxsMLITxNVFMpjdpfA2aS8TX_-KuorBve2MaTaGLcBC52nzzQQU81o6hcEcAyjpns-hUH1-VDomsygN-z-A5QeXe5RDEbwuokWe3k31IGDMBOiUfT9JPH8HBjUBcmtCK6V51-KIBoqaKOZ-DDAS09FKKR2pnfnGCdaUnG1fOEp4f5IaqZxY_EqwYL8GRkqe2BvZw172EKo-vAg?session=0&fife"}},{"type":"Feature","geometry":{"type":"Point","coordinates":[121.6887463,24.7207241,0]},"properties":{"name":"宜蘭員山內城站","description":"<img src=\"https://doc-14-84-mymaps.googleusercontent.com/untrusted/hostedimage/f3b2dqtipj61dpr0r4ft5or71g/ngva094n2dvp2hpfumvju6p764/1578204000000/88G9EWVEQtrnDFVimK5EeSaMGvg5_rm9/14920644892035454765/1AF2TALqvLvALLITuhwU0fQIxk6fmstcJ8BmB6h_TkM00N3eYbN5OVWwpl9IutDzVAEpKt43gjOxUwqlBRjrXYbCmXq0Ozz9sBrbogcCzb6b9wSxUI7hJG0gaR7_omLPpsRb8ovnczNnX4a1X7Yr_Y9LTFfWiMa_QeU7IRdHL800OCt4WfQmusVujWDJq04st7KY3hxsvp5V5cMQb--WpNo9mGMjFkoOqDTzvAnbrbzxuWwfw2SZwWiVDLyNUyBXSnUTAUMhBYs2ukO2DHYAVM8vAwtQFakp_-g?session=0&fife\" height=\"200\" width=\"auto\" /><br><br>管理單位:內城社區<br>服務地點:宜蘭縣員山鄉榮光路321號<br>服務電話：03-9227001<br>服務時間:週一至週日全天開放<br>服務對象:有需要的居民朋友<br>受贈物品品項：麵包、餅乾、麵條、米粉、蔬果<br>其他補充事項：日常生活用品","gx_media_links":"https://doc-14-84-mymaps.googleusercontent.com/untrusted/hostedimage/f3b2dqtipj61dpr0r4ft5or71g/ngva094n2dvp2hpfumvju6p764/1578204000000/88G9EWVEQtrnDFVimK5EeSaMGvg5_rm9/14920644892035454765/1AF2TALqvLvALLITuhwU0fQIxk6fmstcJ8BmB6h_TkM00N3eYbN5OVWwpl9IutDzVAEpKt43gjOxUwqlBRjrXYbCmXq0Ozz9sBrbogcCzb6b9wSxUI7hJG0gaR7_omLPpsRb8ovnczNnX4a1X7Yr_Y9LTFfWiMa_QeU7IRdHL800OCt4WfQmusVujWDJq04st7KY3hxsvp5V5cMQb--WpNo9mGMjFkoOqDTzvAnbrbzxuWwfw2SZwWiVDLyNUyBXSnUTAUMhBYs2ukO2DHYAVM8vAwtQFakp_-g?session=0&fife"}},{"type":"Feature","geometry":{"type":"Point","coordinates":[121.7154891,24.729999,0]},"properties":{"name":"宜蘭員山尚德站","description":"<img src=\"https://doc-0s-84-mymaps.googleusercontent.com/untrusted/hostedimage/f3b2dqtipj61dpr0r4ft5or71g/q8g0m0bnnjcuu27229bn90j0h8/1578204000000/88G9EWVEQtrnDFVimK5EeSaMGvg5_rm9/14920644892035454765/1AF2TALpVcsUl4zbIx3N2-SK3SA4jAqBjVjdvfhkYCjDSAr8QADNz1o2olr9xfgK404fRdMqkYQw0kzSoikJDKnf_LfDInqfamK2R2jvmBU8E6phuyfQLpcNfmQX5K6gcPS2_U8PyUGg8BmO1N6HHNxtjH_j9TMZOp21HDA0P1QQU_YyK9iXyWKK9D-LH88cI53Q1O7r_kUQKRUaq4B7D_bSnTQHV-ryoBpYZXvFcDoqSovhfjCRu4HVcEJj0NA1j11GcsnPBlrIM7uZNZNaCKwxCjOZhynlroA?session=0&fife\" height=\"200\" width=\"auto\" /><br><br>管理單位:員山鄉尚德社區發展協會<br>服務地點:員山鄉尚德村尚德路10號<br>服務電話:0912-010239<br>服務時間:<br>受贈單位:","gx_media_links":"https://doc-0s-84-mymaps.googleusercontent.com/untrusted/hostedimage/f3b2dqtipj61dpr0r4ft5or71g/q8g0m0bnnjcuu27229bn90j0h8/1578204000000/88G9EWVEQtrnDFVimK5EeSaMGvg5_rm9/14920644892035454765/1AF2TALpVcsUl4zbIx3N2-SK3SA4jAqBjVjdvfhkYCjDSAr8QADNz1o2olr9xfgK404fRdMqkYQw0kzSoikJDKnf_LfDInqfamK2R2jvmBU8E6phuyfQLpcNfmQX5K6gcPS2_U8PyUGg8BmO1N6HHNxtjH_j9TMZOp21HDA0P1QQU_YyK9iXyWKK9D-LH88cI53Q1O7r_kUQKRUaq4B7D_bSnTQHV-ryoBpYZXvFcDoqSovhfjCRu4HVcEJj0NA1j11GcsnPBlrIM7uZNZNaCKwxCjOZhynlroA?session=0&fife"}},{"type":"Feature","geometry":{"type":"Point","coordinates":[121.722767,24.7616694,0]},"properties":{"name":"宜蘭員山頭份站","description":"<img src=\"https://doc-0o-84-mymaps.googleusercontent.com/untrusted/hostedimage/f3b2dqtipj61dpr0r4ft5or71g/ttg4op8lb36olovo11aqrlat7g/1578204000000/88G9EWVEQtrnDFVimK5EeSaMGvg5_rm9/14920644892035454765/1AF2TALq1QdQQoGCn3N64dk7HySD8IESMMa2gKc_-utOr1P3Vzwh7yg1kjt7NeQGallzgKvJQ_fE5nPfGeQwUtR0HKnT_F7aKYsRkvxK_p0eVygHuvd9HCK5pSTtszqoM5RRgY_vEQeOpiOzVoDHrdhBhz4jd3ft-27vRihrO1BuaEC_f16wDLoNKk8KJ5txGqBryZG356Fzh7t9p_wYsDhhBafCtL31SBnfj7T0aKr4tFQQdnDoRmI6hHFCu94OstFICSQ-OlJX8Zwzz-1l13PU_VkwLW_eDCQ?session=0&fife\" height=\"200\" width=\"auto\" /><br><br>管理單位:員山鄉結頭份村民辦公室<br>服務地點:員山鄉永同路二段103號<br>服務電話:0958-228749<br>服務時間:<br>受贈品項:","gx_media_links":"https://doc-0o-84-mymaps.googleusercontent.com/untrusted/hostedimage/f3b2dqtipj61dpr0r4ft5or71g/ttg4op8lb36olovo11aqrlat7g/1578204000000/88G9EWVEQtrnDFVimK5EeSaMGvg5_rm9/14920644892035454765/1AF2TALq1QdQQoGCn3N64dk7HySD8IESMMa2gKc_-utOr1P3Vzwh7yg1kjt7NeQGallzgKvJQ_fE5nPfGeQwUtR0HKnT_F7aKYsRkvxK_p0eVygHuvd9HCK5pSTtszqoM5RRgY_vEQeOpiOzVoDHrdhBhz4jd3ft-27vRihrO1BuaEC_f16wDLoNKk8KJ5txGqBryZG356Fzh7t9p_wYsDhhBafCtL31SBnfj7T0aKr4tFQQdnDoRmI6hHFCu94OstFICSQ-OlJX8Zwzz-1l13PU_VkwLW_eDCQ?session=0&fife"}},{"type":"Feature","geometry":{"type":"Point","coordinates":[121.763463,24.673767,0]},"properties":{"name":"宜蘭羅東漢民站","description":"<img src=\"https://doc-10-84-mymaps.googleusercontent.com/untrusted/hostedimage/f3b2dqtipj61dpr0r4ft5or71g/accekunpvutp9rd6koos683mk8/1578204000000/88G9EWVEQtrnDFVimK5EeSaMGvg5_rm9/14920644892035454765/1AF2TALpcmhyAhZ4fJ9xKivD8KetPlBtFbYi3FxSfMdVK9XM6Y-KoT1nZrpf-Ev3pL_Ly2RtkJzQotZosSdScJHHYKp8unVYsBKqc6N1Cz6GOxM0tqU8AaRwVwtGElLIRD6NPON3gDm4x94gDddK4TBXk9DyovzFx8q_ZRc2wqT98q-7j2pIDjFayvBLzQxVqFs7IT1bEXxUYThKrtaXTPpVvUe5uSlx1QSgaaORiYNkhKnXoaj0Nv6lR8BC5FiupOU0_77lNy8-0u06ip8RJADpy0kNKqljllg?session=0&fife\" height=\"200\" width=\"auto\" /><br><br>管理單位:宜蘭縣羅東鎮漢民社區發展協會<br>服務地點:宜蘭縣羅東鎮純精路一段219號<br>服務電話：0910-659387<br>服務時間：<br>服務對象：<br>受贈物品品項：麵包、餅乾、蔬果，蔬菜<br>其他補充事項：日常生活用品","gx_media_links":"https://doc-10-84-mymaps.googleusercontent.com/untrusted/hostedimage/f3b2dqtipj61dpr0r4ft5or71g/accekunpvutp9rd6koos683mk8/1578204000000/88G9EWVEQtrnDFVimK5EeSaMGvg5_rm9/14920644892035454765/1AF2TALpcmhyAhZ4fJ9xKivD8KetPlBtFbYi3FxSfMdVK9XM6Y-KoT1nZrpf-Ev3pL_Ly2RtkJzQotZosSdScJHHYKp8unVYsBKqc6N1Cz6GOxM0tqU8AaRwVwtGElLIRD6NPON3gDm4x94gDddK4TBXk9DyovzFx8q_ZRc2wqT98q-7j2pIDjFayvBLzQxVqFs7IT1bEXxUYThKrtaXTPpVvUe5uSlx1QSgaaORiYNkhKnXoaj0Nv6lR8BC5FiupOU0_77lNy8-0u06ip8RJADpy0kNKqljllg?session=0&fife"}},{"type":"Feature","geometry":{"type":"Point","coordinates":[121.8003388,24.7719669,0]},"properties":{"name":"宜蘭壯圍古亭站","description":"<img src=\"https://doc-04-84-mymaps.googleusercontent.com/untrusted/hostedimage/f3b2dqtipj61dpr0r4ft5or71g/cehn0t1ejf71jl4o44pns58oio/1578204000000/88G9EWVEQtrnDFVimK5EeSaMGvg5_rm9/14920644892035454765/1AF2TALo5ykxbwTMih2MNeYokxHozl5OemuS09dxz9PmM_FO4h2c9Z7_0zrr6eKB3fYWdMjkbXzyp0OX8hOCvixt9jWGYpDZnm65exU6iVN5YjpC6d597C0-BOef4CyEnBnwPu9CFLQuoVD9lRBuyfnM0VI1D_xg22Y9d16xuQ2obS6GsUA2xNQYQqby4ZJNpjAIUwPi7x8SYpy809ArslCU9KS3z9O18uFCQv9Zii5fKE7bE4dJGb2QojijsKTNcaVvKgVN0-LXISR06bgyXVYqKMeJjdxJ4mA?session=0&fife\" height=\"200\" width=\"auto\" /><br><br>管理單位：宜蘭縣壯圍鄉古亭社區發展協會<br>服務地點：宜蘭縣壯圍鄉古亭路46-18號<br>服務電話：(03)930-5028<br>服務時間：週一至週五8:00-16:00<br>服務對象：古亭村居民、有需要者<br>受贈物品品項：冷藏食品、餅乾類、蔬果","gx_media_links":"https://doc-04-84-mymaps.googleusercontent.com/untrusted/hostedimage/f3b2dqtipj61dpr0r4ft5or71g/cehn0t1ejf71jl4o44pns58oio/1578204000000/88G9EWVEQtrnDFVimK5EeSaMGvg5_rm9/14920644892035454765/1AF2TALo5ykxbwTMih2MNeYokxHozl5OemuS09dxz9PmM_FO4h2c9Z7_0zrr6eKB3fYWdMjkbXzyp0OX8hOCvixt9jWGYpDZnm65exU6iVN5YjpC6d597C0-BOef4CyEnBnwPu9CFLQuoVD9lRBuyfnM0VI1D_xg22Y9d16xuQ2obS6GsUA2xNQYQqby4ZJNpjAIUwPi7x8SYpy809ArslCU9KS3z9O18uFCQv9Zii5fKE7bE4dJGb2QojijsKTNcaVvKgVN0-LXISR06bgyXVYqKMeJjdxJ4mA?session=0&fife"}},{"type":"Feature","geometry":{"type":"Point","coordinates":[121.7712162,24.7066136,0]},"properties":{"name":"宜蘭五結二結站","description":"<img src=\"https://doc-0k-84-mymaps.googleusercontent.com/untrusted/hostedimage/f3b2dqtipj61dpr0r4ft5or71g/ln962s4r9h1n0brj3saa2ru9t4/1578204000000/88G9EWVEQtrnDFVimK5EeSaMGvg5_rm9/14920644892035454765/1AF2TALoStAfVcQx5pb7tPCyVC3SQqylwt4KCOKkYjNsj9A1KzL_gRPPHKKwnPBV32ysmuQ25VQFgJavNS0vtFvBySMUmh8B5UAoCc3ruCV-li-PzM8J_O4oymJ2ZsKTxEuNDQbbkLjUqDVxL-bPmdkpMK22jN7hP4BuZNzO2VdMVWivKYRVrIBV-WtlAqMpPdpQHcpnDHjlwf1DnIcMFUot933HWZv7rX6hu840pOUAGSIicDiPs1FfzDEm3B3vHx9vvEK8saaYCGJp_C36Nsb_xL9e7saZuVA?session=0&fife\" height=\"200\" width=\"auto\" /><br><br>管理單位:宜蘭縣五結鄉二結社區發展協會<br>服務地點:五結鄉中正路3段151號活動中心一樓<br>服務電話：03-9641001<br>服務時間:星期一～五早上08:30～15:30<br>服務對象:社區關懷戶、有需要者<br>受贈物品品項：麵包、蔬果、日用品","gx_media_links":"https://doc-0k-84-mymaps.googleusercontent.com/untrusted/hostedimage/f3b2dqtipj61dpr0r4ft5or71g/ln962s4r9h1n0brj3saa2ru9t4/1578204000000/88G9EWVEQtrnDFVimK5EeSaMGvg5_rm9/14920644892035454765/1AF2TALoStAfVcQx5pb7tPCyVC3SQqylwt4KCOKkYjNsj9A1KzL_gRPPHKKwnPBV32ysmuQ25VQFgJavNS0vtFvBySMUmh8B5UAoCc3ruCV-li-PzM8J_O4oymJ2ZsKTxEuNDQbbkLjUqDVxL-bPmdkpMK22jN7hP4BuZNzO2VdMVWivKYRVrIBV-WtlAqMpPdpQHcpnDHjlwf1DnIcMFUot933HWZv7rX6hu840pOUAGSIicDiPs1FfzDEm3B3vHx9vvEK8saaYCGJp_C36Nsb_xL9e7saZuVA?session=0&fife"}},{"type":"Feature","geometry":{"type":"Point","coordinates":[121.771068,24.6555771,0]},"properties":{"name":"宜蘭冬山永美站","description":"<img src=\"https://doc-04-84-mymaps.googleusercontent.com/untrusted/hostedimage/f3b2dqtipj61dpr0r4ft5or71g/61fi479i6a3b2a6bs4ev6j3c1c/1578204000000/88G9EWVEQtrnDFVimK5EeSaMGvg5_rm9/14920644892035454765/1AF2TALotPwDuA5iK54vnCtj7hS6RCZuWa6yB_ikik0yuQDa7yB5Q9OTHqY1lY3KPWeMoysD0DrKE3Z8epUFigpnHIfZsfQWPNegIwuzIYRXazYFG8fUIyMjt4Ws-QrkFmpfX9JtjjmfSR_CELS5_K8a8rkeGrv_gOPka3eXr0ur5cEHF32qvLEJJySx8tKUMJeg2JfuzzItzBhsXVZur6M07HwOL_iJO4Uyayr5kaEhXvkyiTcKY5pSsibpwpzLS6mkGfQoP2QBFBd6qAS7u15PrPidbAwINLg?session=0&fife\" height=\"200\" width=\"auto\" /><br><br>管理單位:宜蘭縣冬山鄉永美社區發展協會<br>服務地點:宜蘭縣冬山鄉永美村永興路一段189號<br>服務電話：039584461<br>服務時間:每星期一至五，8點至下午16點<br>服務對象:鄰近社區有需要之居民<br>受贈物品品項：麵包，餅乾，蔬菜等","gx_media_links":"https://doc-04-84-mymaps.googleusercontent.com/untrusted/hostedimage/f3b2dqtipj61dpr0r4ft5or71g/61fi479i6a3b2a6bs4ev6j3c1c/1578204000000/88G9EWVEQtrnDFVimK5EeSaMGvg5_rm9/14920644892035454765/1AF2TALotPwDuA5iK54vnCtj7hS6RCZuWa6yB_ikik0yuQDa7yB5Q9OTHqY1lY3KPWeMoysD0DrKE3Z8epUFigpnHIfZsfQWPNegIwuzIYRXazYFG8fUIyMjt4Ws-QrkFmpfX9JtjjmfSR_CELS5_K8a8rkeGrv_gOPka3eXr0ur5cEHF32qvLEJJySx8tKUMJeg2JfuzzItzBhsXVZur6M07HwOL_iJO4Uyayr5kaEhXvkyiTcKY5pSsibpwpzLS6mkGfQoP2QBFBd6qAS7u15PrPidbAwINLg?session=0&fife"}},{"type":"Feature","geometry":{"type":"Point","coordinates":[121.7649068,24.6537342,0]},"properties":{"name":"宜蘭冬山順安站","description":"<img src=\"https://doc-08-84-mymaps.googleusercontent.com/untrusted/hostedimage/f3b2dqtipj61dpr0r4ft5or71g/njen9ef8otn42k0ei3tjujm7bo/1578204000000/88G9EWVEQtrnDFVimK5EeSaMGvg5_rm9/14920644892035454765/1AF2TALrOIcVbbFoN5uZvCanrGLtyILXGN8wI7bPGVVS-D-E-IYY_AHk76P6ok-QDsog1TlS5xwedbWabVMvrnW3fL5GzZHZzEl9Kr_F-H-D4IVy-JpCm31IDC25vfj-bnvcd7QTvTCFDeEusAy09KfVCopciAYnBmWfX2K655EGaODxu_qx8hn6BJmvxxNQ5VdBgt7goJ_3lJK5LPEgI9Buzaxguj2PBHQySQSvjpDDb-YuzrSuPh12_Dlul9TKjHRVvnCGm1m8G1oOV7aQt9siMbk1yVtNDDg?session=0&fife\" height=\"200\" width=\"auto\" /><br><br>管理單位:宜蘭縣冬山鄉順安社區發展協會<br>服務地點:宜蘭縣冬山鄉義成路二段378巷87號<br>服務電話：(03)9580300<br>服務時間:星期一、三、五早上09:00-12:00<br>服務對象:有需要者<br>受贈物品品項：麵包、蔬果、日用品<br>分享食物分享愛-歡迎大家共同惜食愛地球","gx_media_links":"https://doc-08-84-mymaps.googleusercontent.com/untrusted/hostedimage/f3b2dqtipj61dpr0r4ft5or71g/njen9ef8otn42k0ei3tjujm7bo/1578204000000/88G9EWVEQtrnDFVimK5EeSaMGvg5_rm9/14920644892035454765/1AF2TALrOIcVbbFoN5uZvCanrGLtyILXGN8wI7bPGVVS-D-E-IYY_AHk76P6ok-QDsog1TlS5xwedbWabVMvrnW3fL5GzZHZzEl9Kr_F-H-D4IVy-JpCm31IDC25vfj-bnvcd7QTvTCFDeEusAy09KfVCopciAYnBmWfX2K655EGaODxu_qx8hn6BJmvxxNQ5VdBgt7goJ_3lJK5LPEgI9Buzaxguj2PBHQySQSvjpDDb-YuzrSuPh12_Dlul9TKjHRVvnCGm1m8G1oOV7aQt9siMbk1yVtNDDg?session=0&fife"}},{"type":"Feature","geometry":{"type":"Point","coordinates":[121.7662728,24.6425363,0]},"properties":{"name":"宜蘭冬山丸山站","description":"管理單位:宜蘭縣冬山鄉丸山社區發展協會<br>服務地點:宜蘭縣冬山鄉港尾路98號<br>服務電話:03-9589114<br>服務時間:週一至週五09:00~12:00<br>務對象:有需要者<br>分贈物品品項:麵包、蔬果、日用品<br>分享食物分享愛-歡迎大家共同惜食愛地球"}},{"type":"Feature","geometry":{"type":"Point","coordinates":[121.7913053,24.6359375,0]},"properties":{"name":"宜蘭冬瓜站","description":"管理單位:冬山鄉冬瓜山社區發展協會<br>服務地點:冬山鄉冬山村中正路20號<br>服務電話：03-9592718<br>服務時間:週一至週日09:00-11:00<br>服務對象:有需要的鄉親<br>受贈物品品項：麵包、餅乾、麵條、米粉<br>其他補充事項：日常生活用品"}},{"type":"Feature","geometry":{"type":"Point","coordinates":[121.7506797,24.6557972,0]},"properties":{"name":"宜蘭冬山鹿埔站","description":"管理單位:宜蘭縣冬山鄉鹿埔長照中心<br>服務地點:宜蘭縣冬山鄉鹿埔路490號<br>服務電話:03-9680367<br>服務時間:<br>受贈品項':"}},{"type":"Feature","geometry":{"type":"Point","coordinates":[121.7976925,24.6606845,0]},"properties":{"name":"宜蘭冬山武淵站","description":"管理單位:宜蘭縣冬山鄉武源社區發展協會<br>服務地點:冬山鄉武淵社區活動中心<br>服務電話：03-9508704<br>服務時間:星期一、三、五早上09:00-12:00<br>服務對象:有需要者<br>受贈物品品項：麵包、蔬果、日用品"}},{"type":"Feature","geometry":{"type":"Point","coordinates":[121.8063424,24.629707,0]},"properties":{"name":"宜蘭冬山東城站","description":"管理單位:宜蘭縣冬山東城社區發展協會<br>服務地點:宜蘭縣冬山鄉東城路280號<br>服務電話：0939586350<br>服務時間:每周一至周五 上午8：20~下午5：20<br>服務對象:社區居民及鄰近有需要者<br>受贈物品品項：麵包，生活用品"}},{"type":"Feature","geometry":{"type":"Point","coordinates":[121.7452097,24.7009965,0]},"properties":{"name":"宜蘭三星尾塹站","description":"管理單位:尾塹社區發展協會<br>服務地點:三星鄉尾塹村上將路一段249巷30號<br>服務電話：039558278<br>服務時間:每星期一至五早上九點到下午四點<br>服務對象:村民<br>受贈物品品項：蔬菜水果麵包饅頭其他食材"}},{"type":"Feature","geometry":{"type":"Point","coordinates":[121.610003,24.676677,0]},"properties":{"name":"宜蘭大同卑埤站","description":"管理單位:宜蘭縣大同鄉原住民族家庭服務中心<br>服務地點:大同原家中心（大同鄉崙埤村）<br>服務電話：03-9801090<br>服務時間:星期一~五<br>早上09:00-12:00<br>下午13:30～17:00<br>服務對象:有需要者<br>受贈物品品項：麵包、蔬果、日用品"}},{"type":"Feature","geometry":{"type":"Point","coordinates":[121.8013848,24.4636336,0]},"properties":{"name":"宜蘭南澳南強站","description":"管理單位:宜蘭縣南澳鄉原住民族家庭服務中心<br>服務地點:宜蘭縣蘇澳鎮大通路30號<br>服務電話：03-9982193<br>服務時間: 每週一至週五 上午8:20-下午5:20<br>服務對象:原住民族人、社區鄰近有需要者<br>受贈物品品項：麵包、生活用品"}},{"type":"Feature","geometry":{"type":"Point","coordinates":[121.5799595,24.6551899,0]},"properties":{"name":"宜蘭大同松羅站\n","description":"管理單位：大同鄉松羅社區活動中心<br>服務地點：大同鄉松羅南巷35-1號<br>服務電話：03-9801096<br>服務時間：每週一至週五下午13點至17點<br>服務對象：課輔學童以及社區居民<br>受贈物品品項： 乾糧類(米、罐頭、麵條...等)<br>其他補充事項：課輔學童因為分享食物分享愛，而填飽肚子"}},{"type":"Feature","geometry":{"type":"Point","coordinates":[121.451565,24.531767,0]},"properties":{"name":"宜蘭大同茂安站","description":"管理單位：大同鄉茂安社區活動中心<br>服務地點：大同鄉茂安村泰雅路五段70號<br>服務電話：03-989709<br>服務時間：每週一至週五下午13點至17點<br>服務對象：課輔學童以及社區居民<br>受贈物品品項： 乾糧類(米、罐頭、麵條...等)、棉被<br>其他補充事項：分享愛和食物，把溫暖帶進社區的角落"}},{"type":"Feature","geometry":{"type":"Point","coordinates":[121.6887143,24.6103834,0]},"properties":{"name":"宜蘭大同寒溪站","description":"管理單位：宜蘭縣大同鄉寒溪長老教會<br>服務地點：宜蘭縣大同鄉寒溪村(巷)55-5號<br>服務電話：03-9517460<br>服務時間：週二至週五8:00-17:00<br>服務對象：寒溪村族人、有需要者<br>受贈物品品項：冷藏食品、麵包、餅乾類"}},{"type":"Feature","geometry":{"type":"Point","coordinates":[121.83987,24.59591,0]},"properties":{"name":"宜蘭蘇澳聖愛站","description":"管理單位：宜蘭縣蘇澳長老教會<br>服務地點：宜蘭縣蘇澳鎮中山路一段427號<br>服務電話：03-9962927<br>服務時間：每週一至週五下午3:00<br>服務對象：蘇澳教友及社區有需要民眾有需要者"}},{"type":"Feature","geometry":{"type":"Point","coordinates":[121.757626,24.771332,0]},"properties":{"name":"宜林新生站","description":"管理單位:宜林大診所<br>服務地點:宜蘭市中山路五段210號<br>服務電話:03-9280535<br>服務時間:<br>受贈品項:"}},{"type":"Feature","geometry":{"type":"Point","coordinates":[121.8273483,24.6205233,0]},"properties":{"name":"宜蘭蘇澳新城站","description":"管理單位: 宜蘭縣蘇澳鎮新城社區發展協會<br>服務地點: 蘇澳鎮新城里慶安路9號<br>服務電話：0939-789928<br>服務時間: 周一至周五10:00-16:00<br>服務對象: 社區居民及弱勢家庭<br>受贈物品品項：麵包 麵條 米 農產品 生活用品 <br>其他補充事項："}},{"type":"Feature","geometry":{"type":"Point","coordinates":[121.9004624,24.9428218,0]},"properties":{"name":"宜蘭頭城龜山站","description":"管理單位:頭城鎮龜山島社區發展協會<br>服務地點:宜蘭縣頭城鎮龜山路161號<br>服務電話:03-9780867<br>服務時間<br>受贈品項:"}},{"type":"Feature","geometry":{"type":"Point","coordinates":[121.7653906,24.6907871,0]},"properties":{"name":"宜蘭羅東竹林站","description":"管理單位:宜蘭羅東基督教福利會<br>服務地點:羅東鎮復興路二段238巷11號<br>服務電話:0972-346446<br>服務時間:<br>受贈品項:"}},{"type":"Feature","geometry":{"type":"Point","coordinates":[121.7745316,24.6929567,0]},"properties":{"name":"宜蘭羅東中興站","description":"管理單位:宜蘭五結鄉中興社區發展協會<br>服務地址:宜蘭五結鄉中興路三段6號<br>服務電話:03-9656528<br>服務時間:<br>受贈品項:"}},{"type":"Feature","geometry":{"type":"Point","coordinates":[121.7507819,24.7599211,0]},"properties":{"name":"宜蘭中山站","description":"管理單位:宜蘭鄂王社區發展協會<br>服務地點:宜蘭市慈安里1鄰慈安路81號<br>服務電話:03-9329912<br>服務時間:<br>受贈品項:"}},{"type":"Feature","geometry":{"type":"Point","coordinates":[121.764399,24.760684,0]},"properties":{"name":"宜蘭慈安站","description":"管理單位:宜蘭慈安社區發展協會<br>服務地點:宜蘭市慈安里1鄰慈安路81號<br>服務電話:03-9382877<br>服務時間:<br>受贈品項:"}},{"type":"Feature","geometry":{"type":"Point","coordinates":[121.1488217,22.7675628,0]},"properties":{"name":"台東寶桑站","description":"管理單位: 社團法人台東安心家庭關懷協會 萬善堂惜福冰箱<br>服務地點: 台東市勝利街285號<br>服務電話： 0921739621<br>服務時間: 全年無休<br>服務對象: 弱勢個案及邊緣戶<br>受贈物品品項： 蔬果、熟食、米、及日常生活用品"}},{"type":"Feature","geometry":{"type":"Point","coordinates":[121.136694,22.752009,0]},"properties":{"name":"台東豐隆站","description":"管理單位: 社團法人台東安心家庭關懷協會<br>服務地點: 台東市豐榮路107號<br>服務電話： 089328366<br>服務時間: 星期一至星期五上午9:00-18:00<br>服務對象: 弱勢個案及邊緣戶<br>受贈物品品項： 蔬果、熟食、米、及日常生活用品"}},{"type":"Feature","geometry":{"type":"Point","coordinates":[121.149413,22.760447,0]},"properties":{"name":"台東民生站","description":"管理單位: 社團法人臺東縣弱勢者關懷協會<br>服務地點: 臺東市浙江路82號<br>服務電話： 089-359-586<br>服務時間: 週一至週五 08:00-17:00<br>服務對象: 有需求者<br>受贈物品品項： 各類熟食"}},{"type":"Feature","geometry":{"type":"Point","coordinates":[121.128976,22.769098,0]},"properties":{"name":"台東光明站 (冷凍)","description":"管理單位: 社團法人台東縣智障者家長協會<br>服務地點: 台東市中興路2段200巷7號<br>服務電話： 089-238668<br>服務時間: 星期一至星期五上午8:00-1730<br>服務對象: 身心障礙家庭、弱勢個案<br>受贈物品品項： 蔬果、熟食、米、及日常生活用品"}},{"type":"Feature","geometry":{"type":"Point","coordinates":[121.381015,23.103163,0]},"properties":{"name":"台東成功忠智站 (冷凍)","description":"管理單位: 社團法人台東縣智障者家長協會<br>服務地點: 台東縣成功鎮中正路100號4樓<br>服務電話： 089-854456<br>服務時間: 星期一至星期五上午8:00-16:30<br>服務對象: 身心障礙家庭、弱勢個案、邊緣戶<br>受贈物品品項： 蔬果、熟食、米、及日常生活用品"}},{"type":"Feature","geometry":{"type":"Point","coordinates":[121.768084,24.8282058,0]},"properties":{"name":"宜蘭縣礁溪鄉德陽社區發展協會","description":"管理單位:德陽社區協會<br>服務地點:礁溪鄉成功路32之3号<br>服務電話：039882101<br>服務時間:每週三，五上下午<br>服務對象:社區長者<br>受贈物品品項：冷藏食品，麵包餅乾及蔬果"}},{"type":"Feature","geometry":{"type":"Point","coordinates":[121.771392,24.7588335,0]},"properties":{"name":"宜蘭縣宜蘭市延平社區活動中心"}},{"type":"Feature","geometry":{"type":"Point","coordinates":[121.7633527,24.7519287,0]},"properties":{"name":"宜蘭縣宜蘭市紳銘(新東社區)"}},{"type":"Feature","geometry":{"type":"Point","coordinates":[121.76337,24.6767102,0]},"properties":{"name":"宜蘭縣羅東鎮康復希望工作坊"}},{"type":"Feature","geometry":{"type":"Point","coordinates":[121.754097,24.7554141,0]},"properties":{"name":"宜蘭新民站"}},{"type":"Feature","geometry":{"type":"Point","coordinates":[121.823797,24.856535,0]},"properties":{"name":"宜蘭縣頭城小鎮生活"}},{"type":"Feature","geometry":{"type":"Point","coordinates":[121.100694,22.781438,0]},"properties":{"name":"台東卑南太平站 (冷凍)","description":"管理單位: 社團法人台東縣失智者關懷協會<br>服務地點: 台東縣卑南鄉太平村1鄰民生路86巷26號<br>服務電話： 089380900<br>服務時間: 星期一至星期五上午8:00-1730<br>服務對象: 弱勢個案及邊緣戶<br>受贈物品品項： 蔬果、熟食、米、及日常生活用品"}},{"type":"Feature","geometry":{"type":"Point","coordinates":[121.7982782,24.683985,0]},"properties":{"name":"宜蘭五結站","description":"管理單位:宜蘭婦女關懷協會<br>連絡電話:03-9600671"}}]}