{"type":"FeatureCollection","features":[{"type":"Feature","geometry":{"type":"Point","coordinates":[121.77115,24.8217786,0]},"properties":{"name":"宜蘭礁溪六結Ⅰ站","description":"<img src=\"https://doc-0g-84-mymaps.googleusercontent.com/untrusted/hostedimage/f3b2dqtipj61dpr0r4ft5or71g/59uorcj8o9g7qrc75d89a77ntc/1578204000000/88G9EWVEQtrnDFVimK5EeSaMGvg5_rm9/14920644892035454765/1AF2TALp_BSlS__MTtCPJbvx3HMuQ0NGG4jbtEwKR16-DvyDA70YsBUrbGmkNDN8lr93dgPLzPgh6jpT36Z5xseBXWxiZBRTUIUC-vUUu5noMKAhqn2U1OztrAkp5qqEIpC2ZQm7yh8Fg077tDXPuEkjMKM0SOOVVYptuJLr69LppiQQbe2jPtzURxZppPqdUFN7-AAVDPw1GoieJo5PDulIXeg4DyB8zVgKPPMnAdK3QKpe9OVWTL-9MJEBsSsQZWxtpXRhKPqg4s-IWKcpBucjrm7Y9AA6PfA?session=0&fife\" height=\"200\" width=\"auto\" /><br><br>管理單位:礁溪鄉林家豬腸冬粉名店<br>服務地點:宜蘭礁溪鄉中山路一段276號<br>服務電話:03-9882030<br>服務時間:<br>受贈品項:","gx_media_links":"https://doc-0g-84-mymaps.googleusercontent.com/untrusted/hostedimage/f3b2dqtipj61dpr0r4ft5or71g/59uorcj8o9g7qrc75d89a77ntc/1578204000000/88G9EWVEQtrnDFVimK5EeSaMGvg5_rm9/14920644892035454765/1AF2TALp_BSlS__MTtCPJbvx3HMuQ0NGG4jbtEwKR16-DvyDA70YsBUrbGmkNDN8lr93dgPLzPgh6jpT36Z5xseBXWxiZBRTUIUC-vUUu5noMKAhqn2U1OztrAkp5qqEIpC2ZQm7yh8Fg077tDXPuEkjMKM0SOOVVYptuJLr69LppiQQbe2jPtzURxZppPqdUFN7-AAVDPw1GoieJo5PDulIXeg4DyB8zVgKPPMnAdK3QKpe9OVWTL-9MJEBsSsQZWxtpXRhKPqg4s-IWKcpBucjrm7Y9AA6PfA?session=0&fife"}},{"type":"Feature","geometry":{"type":"Point","coordinates":[121.7708378,24.820466,0]},"properties":{"name":"宜蘭礁溪六結Ⅱ站","description":"管理單位:社團法人宜蘭縣蓮記關懷協會"}},{"type":"Feature","geometry":{"type":"Point","coordinates":[121.819693,24.853961,0]},"properties":{"name":"宜蘭頭城新建站","description":"<img src=\"https://doc-0s-84-mymaps.googleusercontent.com/untrusted/hostedimage/f3b2dqtipj61dpr0r4ft5or71g/bqu8c0fu7gi11ais5qkjsrie5g/1578204000000/88G9EWVEQtrnDFVimK5EeSaMGvg5_rm9/14920644892035454765/1AF2TALo0R5k3iuqz7G1rzHXhFE-yONYMOaID-Wyi2e7bwcP2zUPp2Q1xZvpg_EdIzMt7yIWKf4sN-t5TCcCzpuo6vXhfb26I3fI2uWRRp9EfuWW96ovWgs2ToucgXnMRT0nvzQPNzeWXsZTYoPHOgqSzXxrM6HmWKh-TgloTvv73dr6TKc4vFnKcKAbJlYm72-nTN7Q1oEL3XkSh4yfotE6tGfq8dy5seuU_U9YvxMIzAqpZv9gURYfT6HQcz2nFQVNC0rHFMPWh0jJSVXHpX2afvDieqFTGRg?session=0&fife\" height=\"200\" width=\"auto\" /><br><br>管理單位:頭城鎮新建社區發展協會<br>服務地點:頭城鎮新建里新興路234-1號 <br>服務電話：0937一159535<br>服務時間:每周1-5早上8点3O分到中午12点止<br>服務對象:需要熟食弱勢民衆<br>受贈物品品項：品項：熟食，乾糧<br>其他補充事項：週六，日，國定假日休息","gx_media_links":"https://doc-0s-84-mymaps.googleusercontent.com/untrusted/hostedimage/f3b2dqtipj61dpr0r4ft5or71g/bqu8c0fu7gi11ais5qkjsrie5g/1578204000000/88G9EWVEQtrnDFVimK5EeSaMGvg5_rm9/14920644892035454765/1AF2TALo0R5k3iuqz7G1rzHXhFE-yONYMOaID-Wyi2e7bwcP2zUPp2Q1xZvpg_EdIzMt7yIWKf4sN-t5TCcCzpuo6vXhfb26I3fI2uWRRp9EfuWW96ovWgs2ToucgXnMRT0nvzQPNzeWXsZTYoPHOgqSzXxrM6HmWKh-TgloTvv73dr6TKc4vFnKcKAbJlYm72-nTN7Q1oEL3XkSh4yfotE6tGfq8dy5seuU_U9YvxMIzAqpZv9gURYfT6HQcz2nFQVNC0rHFMPWh0jJSVXHpX2afvDieqFTGRg?session=0&fife"}},{"type":"Feature","geometry":{"type":"Point","coordinates":[121.7619879,24.7890663,0]},"properties":{"name":"宜蘭礁溪吳沙站","description":"<img src=\"https://doc-04-84-mymaps.googleusercontent.com/untrusted/hostedimage/f3b2dqtipj61dpr0r4ft5or71g/vl2jg7b34plffskffdphdb1vps/1578204000000/88G9EWVEQtrnDFVimK5EeSaMGvg5_rm9/14920644892035454765/1AF2TALq2u0O_EHaTjNYd_7RsndYKLPsIB_SVWlfsGqGc-n41Wv6iBoYdqQryt3ySufyVljY623kXQLBLCpkycgEd5hy-2KF0yG-2EQ_HZKvYVF8n51Af0dp7R3jBTjS_mci8eL2QuSuYoF4g7dA3icUmq4GH8d1qf4g2b97PP1iB9ATiaLbOFOTzZuLLWvlgmZ5pZRhTrB9_Z_UTmScShUCCb8vOAVTfmDNZ5KaE3srUr3cjfAoNJF3rCNX-ptjVfS7_bgufB-8L7XgBTMMiY25dGb_ELqVtdQ?session=0&fife\" height=\"200\" width=\"auto\" /><br><br>管理單位:社團法人宜蘭縣愛加倍關懷協會<br>服務地點:宜蘭縣礁溪鄉礁溪路一段276號<br>服務電話：(03）9289995<br>服務時間:每星期一至五，8點至下午16點<br>服務對象:<br>1.有意願設置冰箱的公益團體<br>2.鄰近有食物需要之社區居民<br>服務項目：<br>1.宜蘭社區冰箱推廣服務平台<br>2.受贈物品品項：麵包，餅乾，蔬菜","gx_media_links":"https://doc-04-84-mymaps.googleusercontent.com/untrusted/hostedimage/f3b2dqtipj61dpr0r4ft5or71g/vl2jg7b34plffskffdphdb1vps/1578204000000/88G9EWVEQtrnDFVimK5EeSaMGvg5_rm9/14920644892035454765/1AF2TALq2u0O_EHaTjNYd_7RsndYKLPsIB_SVWlfsGqGc-n41Wv6iBoYdqQryt3ySufyVljY623kXQLBLCpkycgEd5hy-2KF0yG-2EQ_HZKvYVF8n51Af0dp7R3jBTjS_mci8eL2QuSuYoF4g7dA3icUmq4GH8d1qf4g2b97PP1iB9ATiaLbOFOTzZuLLWvlgmZ5pZRhTrB9_Z_UTmScShUCCb8vOAVTfmDNZ5KaE3srUr3cjfAoNJF3rCNX-ptjVfS7_bgufB-8L7XgBTMMiY25dGb_ELqVtdQ?session=0&fife"}},{"type":"Feature","geometry":{"type":"Point","coordinates":[121.7725065,24.8267059,0]},"properties":{"name":"宜蘭礁溪德陽站","description":"<img src=\"https://doc-0o-84-mymaps.googleusercontent.com/untrusted/hostedimage/f3b2dqtipj61dpr0r4ft5or71g/m3mpc8p0hqc8v4mi3g4b1uv5rg/1578204000000/88G9EWVEQtrnDFVimK5EeSaMGvg5_rm9/14920644892035454765/1AF2TALoI8gHK-SkODpkYLyKcRBF2sAk_U5et-sYO_0uoChA9NmSeDwjkhIX8bQsXG0o1oNtmLzrYXL5fWUFcB6jYiZz964XQaYL307ScKGQLAm4XKE4o_5Y6NlQB9TXDG-F2jXJ5R_2IMFJvKkedZ6l6MUYcyeUYd3nckD5cTnzoI9W-GZSuMDh1fIJkoskncAafAK6OteB1P4zoj79t5CaZc_S634UvQeXrIMfQmBLmY5LoIfIgyvImcnPvw_CwEdp4AH02D0dIXhSU0J_J-w7SjOh2EzHPPA?session=0&fife\" height=\"200\" width=\"auto\" /><br><br>管理單位:礁溪溫泉文化協會<br>服務地點:湯圍街57號<br>服務電話：039-881260<br>服務時間:每天下午3-4點<br>服務對象:需要熟食弱勢民眾<br>受贈物品品項：熟食<br>其他補充事項：週三休息","gx_media_links":"https://doc-0o-84-mymaps.googleusercontent.com/untrusted/hostedimage/f3b2dqtipj61dpr0r4ft5or71g/m3mpc8p0hqc8v4mi3g4b1uv5rg/1578204000000/88G9EWVEQtrnDFVimK5EeSaMGvg5_rm9/14920644892035454765/1AF2TALoI8gHK-SkODpkYLyKcRBF2sAk_U5et-sYO_0uoChA9NmSeDwjkhIX8bQsXG0o1oNtmLzrYXL5fWUFcB6jYiZz964XQaYL307ScKGQLAm4XKE4o_5Y6NlQB9TXDG-F2jXJ5R_2IMFJvKkedZ6l6MUYcyeUYd3nckD5cTnzoI9W-GZSuMDh1fIJkoskncAafAK6OteB1P4zoj79t5CaZc_S634UvQeXrIMfQmBLmY5LoIfIgyvImcnPvw_CwEdp4AH02D0dIXhSU0J_J-w7SjOh2EzHPPA?session=0&fife"}},{"type":"Feature","geometry":{"type":"Point","coordinates":[121.781237,24.8344,0]},"properties":{"name":"宜蘭礁溪玉石站","description":"<img src=\"https://doc-0k-84-mymaps.googleusercontent.com/untrusted/hostedimage/f3b2dqtipj61dpr0r4ft5or71g/f0tp5vrgskhil3fi6b7pfhfvao/1578204000000/88G9EWVEQtrnDFVimK5EeSaMGvg5_rm9/14920644892035454765/1AF2TALqv4B-1GNd41ipjkIUDmuIsnN8RaNowwdVIbS6XFmASGxTSPYYSxI14_B1fdFZORfcJGOFJqdeLpFOVWg7JE2N-oVxH_jVQWfUitQqh1pItXXrrKdxKpiO-hehnH42S_URnYpPkgcU59aw65oymJpuMq_1b8ACaQHNlIb1BoXzB41jaow9eORh9vkr8FAMZuuvK8yYNZHRi4mZ1ZmjCjYVmjBjG2JYxWElod7iNTKNAGOMogBDHB1XapXVuxgM8VoM5q1S5_crL-5dv0hnSkeFk9GV2AA?session=0&fife\" height=\"200\" width=\"auto\" /><br><br>管理單位:宜蘭縣礁溪鄉老如意愛心商店<br>服務地點:宜蘭礁溪鄉礁溪路六段220號<br>服務電話:03-9885099<br>服務時間:<br>受贈品項:","gx_media_links":"https://doc-0k-84-mymaps.googleusercontent.com/untrusted/hostedimage/f3b2dqtipj61dpr0r4ft5or71g/f0tp5vrgskhil3fi6b7pfhfvao/1578204000000/88G9EWVEQtrnDFVimK5EeSaMGvg5_rm9/14920644892035454765/1AF2TALqv4B-1GNd41ipjkIUDmuIsnN8RaNowwdVIbS6XFmASGxTSPYYSxI14_B1fdFZORfcJGOFJqdeLpFOVWg7JE2N-oVxH_jVQWfUitQqh1pItXXrrKdxKpiO-hehnH42S_URnYpPkgcU59aw65oymJpuMq_1b8ACaQHNlIb1BoXzB41jaow9eORh9vkr8FAMZuuvK8yYNZHRi4mZ1ZmjCjYVmjBjG2JYxWElod7iNTKNAGOMogBDHB1XapXVuxgM8VoM5q1S5_crL-5dv0hnSkeFk9GV2AA?session=0&fife"}},{"type":"Feature","geometry":{"type":"Point","coordinates":[121.777065,24.763114,0]},"properties":{"name":"宜蘭七張站","description":"<img src=\"https://doc-0k-84-mymaps.googleusercontent.com/untrusted/hostedimage/f3b2dqtipj61dpr0r4ft5or71g/art01eei3civbcd02ogfcbub8c/1578204000000/88G9EWVEQtrnDFVimK5EeSaMGvg5_rm9/14920644892035454765/1AF2TALqg4w4DN7Gz60UkzV085GlVSMDXuScBzxSiBR7c9g7divuWwcyuWQZAr9vLSEdvIUhI2PWlGMaKNhLyYSoxfqWVXUmDBfJLTQ2bQfwOVrZEMJuDE14RSwtdW0cN0fgkiBAsXK3w2E_Nfg2uxCPznNthKhw_S8vIH6Bt9R0SLO_pkL37rtJPCk_w7Luufzm4JamMNq9lLKBESduqHdB87nxoXExvpcqah5h11-6PXBwOir3QoGXE04CigcGxdvfCyNv48i3av_wPjqz3o714YExQp7sFvQ?session=0&fife\" height=\"200\" width=\"auto\" /><br><br>管理單位:宜蘭市七張社區活動中心<br>服務地點:宜蘭縣宜蘭市七張路48-1號<br>服務電話:0932-359133<br>服務時間:<br>受贈品項:","gx_media_links":"https://doc-0k-84-mymaps.googleusercontent.com/untrusted/hostedimage/f3b2dqtipj61dpr0r4ft5or71g/art01eei3civbcd02ogfcbub8c/1578204000000/88G9EWVEQtrnDFVimK5EeSaMGvg5_rm9/14920644892035454765/1AF2TALqg4w4DN7Gz60UkzV085GlVSMDXuScBzxSiBR7c9g7divuWwcyuWQZAr9vLSEdvIUhI2PWlGMaKNhLyYSoxfqWVXUmDBfJLTQ2bQfwOVrZEMJuDE14RSwtdW0cN0fgkiBAsXK3w2E_Nfg2uxCPznNthKhw_S8vIH6Bt9R0SLO_pkL37rtJPCk_w7Luufzm4JamMNq9lLKBESduqHdB87nxoXExvpcqah5h11-6PXBwOir3QoGXE04CigcGxdvfCyNv48i3av_wPjqz3o714YExQp7sFvQ?session=0&fife"}},{"type":"Feature","geometry":{"type":"Point","coordinates":[121.746288,24.741457,0]},"properties":{"name":"宜蘭進士站","description":"管理單位:宜蘭市進士社區發展協會<br>服務地點:宜蘭縣宜蘭市進士路53-1號<br>服務電話：03-9312049<br>服務時間:週一至週五 08:00-17:00<br>服務對象:有需要的居民朋友<br>受贈物品品項：麵包、餅乾、蔬果，蔬菜<br>其他補充事項：日常生活用品"}},{"type":"Feature","geometry":{"type":"Point","coordinates":[121.754163,24.754964,0]},"properties":{"name":"宜蘭大新站","description":"<img src=\"https://doc-14-84-mymaps.googleusercontent.com/untrusted/hostedimage/f3b2dqtipj61dpr0r4ft5or71g/8on5qb4lkaag6g7fbjlmo16kg0/1578204000000/88G9EWVEQtrnDFVimK5EeSaMGvg5_rm9/14920644892035454765/1AF2TALrEm8BvY0V0aWfGLWqhxcx7TWuDMsi6Vg34hYxkCBVQU-7pY47HttNJoYYftz6FK3CDJjSoFZwLO7RhyXg7f5BsdoOpJxG9F6ah_1IFAN8k85ySOR0bwI4F6qIsV9MMfYtF4xsyLT_Bm2_hARjbtVt5iSf2WikTBAk6TgYH_aIqf5sfqcTxxTcUftBwfuZX1QjKy3OxDGgaCUX4WQiRW3lmh8C0okWmXs7IEkyzCpTIPigXik2xrgmbFlVWG3mSD4J_J0o8nBtXvn8xc_7vKA1ho0fAuA?session=0&fife\" height=\"200\" width=\"auto\" /><br><br>管理單位:基督徒宜蘭禮拜堂<br>服務地點:宜蘭縣宜蘭市舊城東路20號<br>服務電話：03-9322454<br>服務時間:週二至週日08:00-17:00<br>服務對象:有需要的居民朋友<br>受贈物品品項：麵包、餅乾、蔬果，蔬菜<br>其他補充事項：日常生活用品","gx_media_links":"https://doc-14-84-mymaps.googleusercontent.com/untrusted/hostedimage/f3b2dqtipj61dpr0r4ft5or71g/8on5qb4lkaag6g7fbjlmo16kg0/1578204000000/88G9EWVEQtrnDFVimK5EeSaMGvg5_rm9/14920644892035454765/1AF2TALrEm8BvY0V0aWfGLWqhxcx7TWuDMsi6Vg34hYxkCBVQU-7pY47HttNJoYYftz6FK3CDJjSoFZwLO7RhyXg7f5BsdoOpJxG9F6ah_1IFAN8k85ySOR0bwI4F6qIsV9MMfYtF4xsyLT_Bm2_hARjbtVt5iSf2WikTBAk6TgYH_aIqf5sfqcTxxTcUftBwfuZX1QjKy3OxDGgaCUX4WQiRW3lmh8C0okWmXs7IEkyzCpTIPigXik2xrgmbFlVWG3mSD4J_J0o8nBtXvn8xc_7vKA1ho0fAuA?session=0&fife"}},{"type":"Feature","geometry":{"type":"Point","coordinates":[121.7502903,24.7520476,0]},"properties":{"name":"宜蘭民族站","description":"<img src=\"https://doc-04-84-mymaps.googleusercontent.com/untrusted/hostedimage/f3b2dqtipj61dpr0r4ft5or71g/41qb0aj3d94dnt0urshpgabers/1578204000000/88G9EWVEQtrnDFVimK5EeSaMGvg5_rm9/14920644892035454765/1AF2TALoljbVWVc5y45pBrrpenItgt5CRWHMNKn_agdnxwXXZzT4usUDR-yy5bV2kvQQINGD1sHt4O6EPg4-XBn-PFunlGRygA6h0oo_wuRjVT_NZVdiuGtVYY44t1fSDg9cdTk4wxXt_DuM_J2KlCUW8NWhOBCxYSNQHY8ncqI2OE-n_6EcllhQQ5ukygP96hOT32OXuD0xHiBaMaAJdSaIUXythWb5IYjkhKr9lCVStp2T73jTxA9Qe7sO81hz3o8BHKdIKlnDypOx1Up5wnXgEVoWaEI7YlA?session=0&fife\" height=\"200\" width=\"auto\" /><br><br>管理單位:社團法人宜蘭縣康復之友協會<br>服務地點:宜蘭縣宜蘭市神農路二段57巷23號<br>服務電話：03-9333710<br>服務時間:週一至週五 08:00-17:00<br>服務對象:有需要的居民朋友<br>受贈物品品項：麵包、餅乾、麵條、米粉、蔬果<br>其他補充事項：日常生活用品","gx_media_links":"https://doc-04-84-mymaps.googleusercontent.com/untrusted/hostedimage/f3b2dqtipj61dpr0r4ft5or71g/41qb0aj3d94dnt0urshpgabers/1578204000000/88G9EWVEQtrnDFVimK5EeSaMGvg5_rm9/14920644892035454765/1AF2TALoljbVWVc5y45pBrrpenItgt5CRWHMNKn_agdnxwXXZzT4usUDR-yy5bV2kvQQINGD1sHt4O6EPg4-XBn-PFunlGRygA6h0oo_wuRjVT_NZVdiuGtVYY44t1fSDg9cdTk4wxXt_DuM_J2KlCUW8NWhOBCxYSNQHY8ncqI2OE-n_6EcllhQQ5ukygP96hOT32OXuD0xHiBaMaAJdSaIUXythWb5IYjkhKr9lCVStp2T73jTxA9Qe7sO81hz3o8BHKdIKlnDypOx1Up5wnXgEVoWaEI7YlA?session=0&fife"}},{"type":"Feature","geometry":{"type":"Point","coordinates":[121.7400181,24.7463556,0]},"properties":{"name":"宜蘭思源站","description":"<img src=\"https://doc-0k-84-mymaps.googleusercontent.com/untrusted/hostedimage/f3b2dqtipj61dpr0r4ft5or71g/1d64vecic0vppi4g8ek7cg8h5s/1578204000000/88G9EWVEQtrnDFVimK5EeSaMGvg5_rm9/14920644892035454765/1AF2TALo6Ms0jY2Kr1jtAH9GZghhhFLC-k2eIGNYtTUNoqS623KF7V2yrVIgBrlVZj7GnxFE8fjisQisLHHvCb3AhFkshCtMlzlRKEOoKmd3dYpJt5oxVW3R662SR-k8iNXo9MR18N5LgX1BnXSnF-FzACG99ZqG91CBUN1WBqqxSSGVh0lFtf8R3xSxrh3urFVPOmeffYTMRzXgvCz-4_9olUToEI12JfbjsOMriLhXsliizt-yyEc0W0_rqjyj6oJWKyLYp7DRjHnwppfS12ONCjbFAk5sG1w?session=0&fife\" height=\"200\" width=\"auto\" /><br><br>管理單位:財團法人基督教會宜蘭靈糧堂<br>服務地點:宜蘭市女中路三段102號4樓<br>服務電話：03-9358483<br>服務時間:週一至週六 08:00-17:30<br>                 週日08：00-14：00<br>服務對象:有需要的居民朋友、牛鬥地區長者<br>受贈物品品項：麵包、餅乾、蔬果等<br>其他補充事項：日常生活用品","gx_media_links":"https://doc-0k-84-mymaps.googleusercontent.com/untrusted/hostedimage/f3b2dqtipj61dpr0r4ft5or71g/1d64vecic0vppi4g8ek7cg8h5s/1578204000000/88G9EWVEQtrnDFVimK5EeSaMGvg5_rm9/14920644892035454765/1AF2TALo6Ms0jY2Kr1jtAH9GZghhhFLC-k2eIGNYtTUNoqS623KF7V2yrVIgBrlVZj7GnxFE8fjisQisLHHvCb3AhFkshCtMlzlRKEOoKmd3dYpJt5oxVW3R662SR-k8iNXo9MR18N5LgX1BnXSnF-FzACG99ZqG91CBUN1WBqqxSSGVh0lFtf8R3xSxrh3urFVPOmeffYTMRzXgvCz-4_9olUToEI12JfbjsOMriLhXsliizt-yyEc0W0_rqjyj6oJWKyLYp7DRjHnwppfS12ONCjbFAk5sG1w?session=0&fife"}},{"type":"Feature","geometry":{"type":"Point","coordinates":[121.764039,24.6827816,0]},"properties":{"name":"宜蘭羅東樹林站","description":"<img src=\"https://doc-0k-84-mymaps.googleusercontent.com/untrusted/hostedimage/f3b2dqtipj61dpr0r4ft5or71g/dvoigoc2airksakm5pvanopouk/1578204000000/88G9EWVEQtrnDFVimK5EeSaMGvg5_rm9/14920644892035454765/1AF2TALrfVr2x8SLaQTB0nKVqVAKYqiTohM8yIqXekK-Kb4chTdrK43cLbr6uJEg59Xowauu9uWGMhFyUg5ZqMvTo4bNyieKdCWi-P0_CugVD6k6wRvFIkBxi7tuKg2CXNoE4IwHTg_o_O0RHJYYg-JYoaZU0ExaXm4_dBccZddq38eOFkOifj8kku6t26zpEFwqzgAdftf-rfOXOlUvPho67-f5LgQybQcilgcr6z8687bXHrMcTSFdhYhHOoIJUeQHtBCd95GVYtZ0-a4vBAZbRU7oAMhProQ?session=0&fife\" height=\"200\" width=\"auto\" /><br><br>管理單位:康復社區復健中心<br>服務地點:宜蘭縣羅東鎮樹人路25號<br>服務電話：03-9543349<br>服務時間:週一至週五 08:00-16:00<br>服務對象:有需要的居民朋友<br>受贈物品品項：麵包、餅乾、麵條、米粉、蔬果<br>其他補充事項：日常生活用品","gx_media_links":"https://doc-0k-84-mymaps.googleusercontent.com/untrusted/hostedimage/f3b2dqtipj61dpr0r4ft5or71g/dvoigoc2airksakm5pvanopouk/1578204000000/88G9EWVEQtrnDFVimK5EeSaMGvg5_rm9/14920644892035454765/1AF2TALrfVr2x8SLaQTB0nKVqVAKYqiTohM8yIqXekK-Kb4chTdrK43cLbr6uJEg59Xowauu9uWGMhFyUg5ZqMvTo4bNyieKdCWi-P0_CugVD6k6wRvFIkBxi7tuKg2CXNoE4IwHTg_o_O0RHJYYg-JYoaZU0ExaXm4_dBccZddq38eOFkOifj8kku6t26zpEFwqzgAdftf-rfOXOlUvPho67-f5LgQybQcilgcr6z8687bXHrMcTSFdhYhHOoIJUeQHtBCd95GVYtZ0-a4vBAZbRU7oAMhProQ?session=0&fife"}},{"type":"Feature","geometry":{"type":"Point","coordinates":[121.6887463,24.7207241,0]},"properties":{"name":"宜蘭員山內城站","description":"<img src=\"https://doc-14-84-mymaps.googleusercontent.com/untrusted/hostedimage/f3b2dqtipj61dpr0r4ft5or71g/hh9ac4ubrni12g292706n0gb28/1578204000000/88G9EWVEQtrnDFVimK5EeSaMGvg5_rm9/14920644892035454765/1AF2TALpXiYVkzujydgM8cxacAcvQsPUi-GAacAbWubZTBPNYTSNhYWsVy7uk2LeHkdkdlShAYp3rYxemvrwR7_nTA3ctmzab7yZiJaI51i4hZbz7iKsj9PDQwi472jtEXadpO_yaHWR6ZtZtkwJVg8-NP3AgHDvRSzj37pJWyK_Nf4lc-SCZomBKodNpQLGuUoxpk3k6VlBdggriuU4Wap90RAWS1iXRcaziPVyGxqUT_bOgSA_EN0j3-EdBUuuAzj65tWvq4jOiMSDqw12prjDsh2XgDKWn8g?session=0&fife\" height=\"200\" width=\"auto\" /><br><br>管理單位:內城社區<br>服務地點:宜蘭縣員山鄉榮光路321號<br>服務電話：03-9227001<br>服務時間:週一至週日全天開放<br>服務對象:有需要的居民朋友<br>受贈物品品項：麵包、餅乾、麵條、米粉、蔬果<br>其他補充事項：日常生活用品","gx_media_links":"https://doc-14-84-mymaps.googleusercontent.com/untrusted/hostedimage/f3b2dqtipj61dpr0r4ft5or71g/hh9ac4ubrni12g292706n0gb28/1578204000000/88G9EWVEQtrnDFVimK5EeSaMGvg5_rm9/14920644892035454765/1AF2TALpXiYVkzujydgM8cxacAcvQsPUi-GAacAbWubZTBPNYTSNhYWsVy7uk2LeHkdkdlShAYp3rYxemvrwR7_nTA3ctmzab7yZiJaI51i4hZbz7iKsj9PDQwi472jtEXadpO_yaHWR6ZtZtkwJVg8-NP3AgHDvRSzj37pJWyK_Nf4lc-SCZomBKodNpQLGuUoxpk3k6VlBdggriuU4Wap90RAWS1iXRcaziPVyGxqUT_bOgSA_EN0j3-EdBUuuAzj65tWvq4jOiMSDqw12prjDsh2XgDKWn8g?session=0&fife"}},{"type":"Feature","geometry":{"type":"Point","coordinates":[121.7154891,24.729999,0]},"properties":{"name":"宜蘭員山尚德站","description":"<img src=\"https://doc-0c-84-mymaps.googleusercontent.com/untrusted/hostedimage/f3b2dqtipj61dpr0r4ft5or71g/3kt46e8kk5nq0ur25ji94siutg/1578204000000/88G9EWVEQtrnDFVimK5EeSaMGvg5_rm9/14920644892035454765/1AF2TALrLnLXZaFDT4y26J40Z-Yjafopzbe1k1yebh2nNR_Phn5Dc_SKG25J5LSmsavGn3xM0T_0vfa9EXAK9QQn40lr8kx51HQu64Zrw9AkTLfPGXK5xoJbn5PxqsSXmbhJtuet9hgnvaTX7SGcYB6zewMn_gLMSeYqXGWsiy8mdaFIpqvnKMHUZcpW9AN2KzlEDSFXLG_fZq_hXJvzKngg2gOA5xOEL5Ape6lGe0mB6IzQV40vPWMXT9IGoW5V5AX9QAn1hxgUMWSDchbqYUNrPjHlqGxwHOA?session=0&fife\" height=\"200\" width=\"auto\" /><br><br>管理單位:員山鄉尚德社區發展協會<br>服務地點:員山鄉尚德村尚德路10號<br>服務電話:0912-010239<br>服務時間:<br>受贈單位:","gx_media_links":"https://doc-0c-84-mymaps.googleusercontent.com/untrusted/hostedimage/f3b2dqtipj61dpr0r4ft5or71g/3kt46e8kk5nq0ur25ji94siutg/1578204000000/88G9EWVEQtrnDFVimK5EeSaMGvg5_rm9/14920644892035454765/1AF2TALrLnLXZaFDT4y26J40Z-Yjafopzbe1k1yebh2nNR_Phn5Dc_SKG25J5LSmsavGn3xM0T_0vfa9EXAK9QQn40lr8kx51HQu64Zrw9AkTLfPGXK5xoJbn5PxqsSXmbhJtuet9hgnvaTX7SGcYB6zewMn_gLMSeYqXGWsiy8mdaFIpqvnKMHUZcpW9AN2KzlEDSFXLG_fZq_hXJvzKngg2gOA5xOEL5Ape6lGe0mB6IzQV40vPWMXT9IGoW5V5AX9QAn1hxgUMWSDchbqYUNrPjHlqGxwHOA?session=0&fife"}},{"type":"Feature","geometry":{"type":"Point","coordinates":[121.722767,24.7616694,0]},"properties":{"name":"宜蘭員山頭份站","description":"<img src=\"https://doc-0g-84-mymaps.googleusercontent.com/untrusted/hostedimage/f3b2dqtipj61dpr0r4ft5or71g/24ii1v92bdit9vqje0fmr51dtg/1578204000000/88G9EWVEQtrnDFVimK5EeSaMGvg5_rm9/14920644892035454765/1AF2TALpxHBM71RxPbi8nViQK1JPMmrOUoA58w5Ofsv_LwxYUtmelrrwypF6_LsHJ-JYoG_-BlfAhU37gfDkxEoEM4PGsrzy3BSRaMhWEKrE9bAPk0O6EDKGGss68FMm7Rl7vOReFo_2t2o0CqKK_RB7soIv6hIY3o_kWAsgXnpeL_KbB20ylnPdiy8rTNlv2h6gUxp1Qc69VOF4gx_Ol6RwNLviRU7Lw-xyaLjnlnj4uKi4eHX2R9FFyszL2nNC6cn74BWmx-5XeEu3nYL7s-uhXeLy1-D-ubg?session=0&fife\" height=\"200\" width=\"auto\" /><br><br>管理單位:員山鄉結頭份村民辦公室<br>服務地點:員山鄉永同路二段103號<br>服務電話:0958-228749<br>服務時間:<br>受贈品項:","gx_media_links":"https://doc-0g-84-mymaps.googleusercontent.com/untrusted/hostedimage/f3b2dqtipj61dpr0r4ft5or71g/24ii1v92bdit9vqje0fmr51dtg/1578204000000/88G9EWVEQtrnDFVimK5EeSaMGvg5_rm9/14920644892035454765/1AF2TALpxHBM71RxPbi8nViQK1JPMmrOUoA58w5Ofsv_LwxYUtmelrrwypF6_LsHJ-JYoG_-BlfAhU37gfDkxEoEM4PGsrzy3BSRaMhWEKrE9bAPk0O6EDKGGss68FMm7Rl7vOReFo_2t2o0CqKK_RB7soIv6hIY3o_kWAsgXnpeL_KbB20ylnPdiy8rTNlv2h6gUxp1Qc69VOF4gx_Ol6RwNLviRU7Lw-xyaLjnlnj4uKi4eHX2R9FFyszL2nNC6cn74BWmx-5XeEu3nYL7s-uhXeLy1-D-ubg?session=0&fife"}},{"type":"Feature","geometry":{"type":"Point","coordinates":[121.763463,24.673767,0]},"properties":{"name":"宜蘭羅東漢民站","description":"<img src=\"https://doc-0k-84-mymaps.googleusercontent.com/untrusted/hostedimage/f3b2dqtipj61dpr0r4ft5or71g/j4g1np5gtkrb6h99c8mlf6tlcs/1578204000000/88G9EWVEQtrnDFVimK5EeSaMGvg5_rm9/14920644892035454765/1AF2TALqPpNSbQck7LpQou_aRSPoPbLsbsxBhrb4rOIUfTvvQU8xWMwrXitm1yizJA1eN7VzClYiXGegfWFkPiSDA6fOWuv2wWu-kWUABlz8lk1vVjVFe6bZV2yXe-QZ1tMWbJSBRk1OcUa6nGRsRFD6BNMgQn5xR0b7LDC2Bq7L7NgtN-2fGR_udar_MudNP2Z7T5Dw9AINgirp2Kkf7Pd2cQpR8VAIUi8nBo_JLQY6XEOvcuP4DfVm3Co1p2pQsbpuxZp9UPHu2IlX6RkqreCHWolq9t2WrnQ?session=0&fife\" height=\"200\" width=\"auto\" /><br><br>管理單位:宜蘭縣羅東鎮漢民社區發展協會<br>服務地點:宜蘭縣羅東鎮純精路一段219號<br>服務電話：0910-659387<br>服務時間：<br>服務對象：<br>受贈物品品項：麵包、餅乾、蔬果，蔬菜<br>其他補充事項：日常生活用品","gx_media_links":"https://doc-0k-84-mymaps.googleusercontent.com/untrusted/hostedimage/f3b2dqtipj61dpr0r4ft5or71g/j4g1np5gtkrb6h99c8mlf6tlcs/1578204000000/88G9EWVEQtrnDFVimK5EeSaMGvg5_rm9/14920644892035454765/1AF2TALqPpNSbQck7LpQou_aRSPoPbLsbsxBhrb4rOIUfTvvQU8xWMwrXitm1yizJA1eN7VzClYiXGegfWFkPiSDA6fOWuv2wWu-kWUABlz8lk1vVjVFe6bZV2yXe-QZ1tMWbJSBRk1OcUa6nGRsRFD6BNMgQn5xR0b7LDC2Bq7L7NgtN-2fGR_udar_MudNP2Z7T5Dw9AINgirp2Kkf7Pd2cQpR8VAIUi8nBo_JLQY6XEOvcuP4DfVm3Co1p2pQsbpuxZp9UPHu2IlX6RkqreCHWolq9t2WrnQ?session=0&fife"}},{"type":"Feature","geometry":{"type":"Point","coordinates":[121.8003388,24.7719669,0]},"properties":{"name":"宜蘭壯圍古亭站","description":"<img src=\"https://doc-0k-84-mymaps.googleusercontent.com/untrusted/hostedimage/f3b2dqtipj61dpr0r4ft5or71g/0mjgs8spv4larbchuj397cjbf8/1578204000000/88G9EWVEQtrnDFVimK5EeSaMGvg5_rm9/14920644892035454765/1AF2TALoV0IDEbjf8BoU0Kp54nZJCDowsTU62ygQdkTe5pqLEU66w_rDXwiZkscAvkEJ5N0jqeEFKvTiETwY1kTGEuu5KsNcD0FVY7zb7zcfAwN1Y63YXJX-9o84ky_Fxyv298kg1KYWonsFQOK-v1m8voFoOPXU62Hb8mfhATzqy8C4N9gsTXPOEaRehfbA5b_vy62a-kXUK1NNfWqLkl9JolU-P9QchRCTxO2cGyBORzEJwLABiO3Tilg98brVjJf1kOr2BytKds8o8dSZ86hwdNnDfCEFFkA?session=0&fife\" height=\"200\" width=\"auto\" /><br><br>管理單位：宜蘭縣壯圍鄉古亭社區發展協會<br>服務地點：宜蘭縣壯圍鄉古亭路46-18號<br>服務電話：(03)930-5028<br>服務時間：週一至週五8:00-16:00<br>服務對象：古亭村居民、有需要者<br>受贈物品品項：冷藏食品、餅乾類、蔬果","gx_media_links":"https://doc-0k-84-mymaps.googleusercontent.com/untrusted/hostedimage/f3b2dqtipj61dpr0r4ft5or71g/0mjgs8spv4larbchuj397cjbf8/1578204000000/88G9EWVEQtrnDFVimK5EeSaMGvg5_rm9/14920644892035454765/1AF2TALoV0IDEbjf8BoU0Kp54nZJCDowsTU62ygQdkTe5pqLEU66w_rDXwiZkscAvkEJ5N0jqeEFKvTiETwY1kTGEuu5KsNcD0FVY7zb7zcfAwN1Y63YXJX-9o84ky_Fxyv298kg1KYWonsFQOK-v1m8voFoOPXU62Hb8mfhATzqy8C4N9gsTXPOEaRehfbA5b_vy62a-kXUK1NNfWqLkl9JolU-P9QchRCTxO2cGyBORzEJwLABiO3Tilg98brVjJf1kOr2BytKds8o8dSZ86hwdNnDfCEFFkA?session=0&fife"}},{"type":"Feature","geometry":{"type":"Point","coordinates":[121.7712162,24.7066136,0]},"properties":{"name":"宜蘭五結二結站","description":"<img src=\"https://doc-04-84-mymaps.googleusercontent.com/untrusted/hostedimage/f3b2dqtipj61dpr0r4ft5or71g/kbbhtfel0dm4cbv27mbikgsdic/1578204000000/88G9EWVEQtrnDFVimK5EeSaMGvg5_rm9/14920644892035454765/1AF2TALoOS2CnNK31WsyFtnD6CtAZvhxpkn-FRauhNJVu6Abo8Tnt0G6YeEhvXKO7YMbwvBTVfAphujDq9pvPp15tKpMPsIXVqk6dlYtDGvyLZxlD2IPl6DrB0Jts8q6YUIBqRsQomoGH9s9FfNB-Z1pEE0FZuSxN8iI_FDB-P7qdLA4pjgdZWK_nODWSUaEVjQvPyhBSHlSiIfcRGHpUxIFa61r8Cty9BcYlafjP8ETVcDrGJG00el6VzlNiHM3PwemNV4yIzf73DlPotErmUxyzBBzfk1sYwg?session=0&fife\" height=\"200\" width=\"auto\" /><br><br>管理單位:宜蘭縣五結鄉二結社區發展協會<br>服務地點:五結鄉中正路3段151號活動中心一樓<br>服務電話：03-9641001<br>服務時間:星期一～五早上08:30～15:30<br>服務對象:社區關懷戶、有需要者<br>受贈物品品項：麵包、蔬果、日用品","gx_media_links":"https://doc-04-84-mymaps.googleusercontent.com/untrusted/hostedimage/f3b2dqtipj61dpr0r4ft5or71g/kbbhtfel0dm4cbv27mbikgsdic/1578204000000/88G9EWVEQtrnDFVimK5EeSaMGvg5_rm9/14920644892035454765/1AF2TALoOS2CnNK31WsyFtnD6CtAZvhxpkn-FRauhNJVu6Abo8Tnt0G6YeEhvXKO7YMbwvBTVfAphujDq9pvPp15tKpMPsIXVqk6dlYtDGvyLZxlD2IPl6DrB0Jts8q6YUIBqRsQomoGH9s9FfNB-Z1pEE0FZuSxN8iI_FDB-P7qdLA4pjgdZWK_nODWSUaEVjQvPyhBSHlSiIfcRGHpUxIFa61r8Cty9BcYlafjP8ETVcDrGJG00el6VzlNiHM3PwemNV4yIzf73DlPotErmUxyzBBzfk1sYwg?session=0&fife"}},{"type":"Feature","geometry":{"type":"Point","coordinates":[121.771068,24.6555771,0]},"properties":{"name":"宜蘭冬山永美站","description":"<img src=\"https://doc-08-84-mymaps.googleusercontent.com/untrusted/hostedimage/f3b2dqtipj61dpr0r4ft5or71g/p36i02h692lq51se1ljv6ba9os/1578204000000/88G9EWVEQtrnDFVimK5EeSaMGvg5_rm9/14920644892035454765/1AF2TALrwYOQBgeox9os-2Zhu_LtHI-B2UGRrya-1cQ8nD3FyEszkOip6ELnyZDkDmxRbdUkZ4eac7fPi21NdBc0jxLjXgI2sgCk9FfQFaPUWnoQnUStdY2lGdLBYntZi4PvSSkWEIfywEEKTcxZ63yIVsBEcKsdtR3QhV8Ge9Fx9UWWqtb3eM4vchOcWlHuWMWCHcjULFZg-AWR-BtSO3r_3-lvS6Kr8WfhKWuTt0mxgvQ5O6tO4gXQI46N44azDnQotA-mt_EV9x38czJgeks6PPGPjuMYvyw?session=0&fife\" height=\"200\" width=\"auto\" /><br><br>管理單位:宜蘭縣冬山鄉永美社區發展協會<br>服務地點:宜蘭縣冬山鄉永美村永興路一段189號<br>服務電話：039584461<br>服務時間:每星期一至五，8點至下午16點<br>服務對象:鄰近社區有需要之居民<br>受贈物品品項：麵包，餅乾，蔬菜等","gx_media_links":"https://doc-08-84-mymaps.googleusercontent.com/untrusted/hostedimage/f3b2dqtipj61dpr0r4ft5or71g/p36i02h692lq51se1ljv6ba9os/1578204000000/88G9EWVEQtrnDFVimK5EeSaMGvg5_rm9/14920644892035454765/1AF2TALrwYOQBgeox9os-2Zhu_LtHI-B2UGRrya-1cQ8nD3FyEszkOip6ELnyZDkDmxRbdUkZ4eac7fPi21NdBc0jxLjXgI2sgCk9FfQFaPUWnoQnUStdY2lGdLBYntZi4PvSSkWEIfywEEKTcxZ63yIVsBEcKsdtR3QhV8Ge9Fx9UWWqtb3eM4vchOcWlHuWMWCHcjULFZg-AWR-BtSO3r_3-lvS6Kr8WfhKWuTt0mxgvQ5O6tO4gXQI46N44azDnQotA-mt_EV9x38czJgeks6PPGPjuMYvyw?session=0&fife"}},{"type":"Feature","geometry":{"type":"Point","coordinates":[121.7649068,24.6537342,0]},"properties":{"name":"宜蘭冬山順安站","description":"<img src=\"https://doc-04-84-mymaps.googleusercontent.com/untrusted/hostedimage/f3b2dqtipj61dpr0r4ft5or71g/i280aalteb5vent6is78ue9otc/1578204000000/88G9EWVEQtrnDFVimK5EeSaMGvg5_rm9/14920644892035454765/1AF2TALpmIkaWXCHMbeygUKyNJM5B9LYMtyQ-3zkfOmus1uTOC8p637HZCU_oBciu22NFazfhWZX5F15rDyTEZjeXhAlPoX0rpHq0k9QbZgVbcKt4flXxcc8oDVnGi06DNxmOvUaGIUImYtXS44ij6OfCT0G_fHBBbSDIbCSeLJaODFXym5v2jd_8JdnvEFUtDwT-O4pB5sVm84T5icqJfn5_WwobgQByBHBkwE-s_DAA1YtFpLpYotVzUQLx3JHNgWy-_Fh_WWGyfKzjFF09l4QIfS4438HhXw?session=0&fife\" height=\"200\" width=\"auto\" /><br><br>管理單位:宜蘭縣冬山鄉順安社區發展協會<br>服務地點:宜蘭縣冬山鄉義成路二段378巷87號<br>服務電話：(03)9580300<br>服務時間:星期一、三、五早上09:00-12:00<br>服務對象:有需要者<br>受贈物品品項：麵包、蔬果、日用品<br>分享食物分享愛-歡迎大家共同惜食愛地球","gx_media_links":"https://doc-04-84-mymaps.googleusercontent.com/untrusted/hostedimage/f3b2dqtipj61dpr0r4ft5or71g/i280aalteb5vent6is78ue9otc/1578204000000/88G9EWVEQtrnDFVimK5EeSaMGvg5_rm9/14920644892035454765/1AF2TALpmIkaWXCHMbeygUKyNJM5B9LYMtyQ-3zkfOmus1uTOC8p637HZCU_oBciu22NFazfhWZX5F15rDyTEZjeXhAlPoX0rpHq0k9QbZgVbcKt4flXxcc8oDVnGi06DNxmOvUaGIUImYtXS44ij6OfCT0G_fHBBbSDIbCSeLJaODFXym5v2jd_8JdnvEFUtDwT-O4pB5sVm84T5icqJfn5_WwobgQByBHBkwE-s_DAA1YtFpLpYotVzUQLx3JHNgWy-_Fh_WWGyfKzjFF09l4QIfS4438HhXw?session=0&fife"}},{"type":"Feature","geometry":{"type":"Point","coordinates":[121.7662728,24.6425363,0]},"properties":{"name":"宜蘭冬山丸山站","description":"管理單位:宜蘭縣冬山鄉丸山社區發展協會<br>服務地點:宜蘭縣冬山鄉港尾路98號<br>服務電話:03-9589114<br>服務時間:週一至週五09:00~12:00<br>務對象:有需要者<br>分贈物品品項:麵包、蔬果、日用品<br>分享食物分享愛-歡迎大家共同惜食愛地球"}},{"type":"Feature","geometry":{"type":"Point","coordinates":[121.7913053,24.6359375,0]},"properties":{"name":"宜蘭冬瓜站","description":"管理單位:冬山鄉冬瓜山社區發展協會<br>服務地點:冬山鄉冬山村中正路20號<br>服務電話：03-9592718<br>服務時間:週一至週日09:00-11:00<br>服務對象:有需要的鄉親<br>受贈物品品項：麵包、餅乾、麵條、米粉<br>其他補充事項：日常生活用品"}},{"type":"Feature","geometry":{"type":"Point","coordinates":[121.7506797,24.6557972,0]},"properties":{"name":"宜蘭冬山鹿埔站","description":"管理單位:宜蘭縣冬山鄉鹿埔長照中心<br>服務地點:宜蘭縣冬山鄉鹿埔路490號<br>服務電話:03-9680367<br>服務時間:<br>受贈品項':"}},{"type":"Feature","geometry":{"type":"Point","coordinates":[121.7976925,24.6606845,0]},"properties":{"name":"宜蘭冬山武淵站","description":"管理單位:宜蘭縣冬山鄉武源社區發展協會<br>服務地點:冬山鄉武淵社區活動中心<br>服務電話：03-9508704<br>服務時間:星期一、三、五早上09:00-12:00<br>服務對象:有需要者<br>受贈物品品項：麵包、蔬果、日用品"}},{"type":"Feature","geometry":{"type":"Point","coordinates":[121.8063424,24.629707,0]},"properties":{"name":"宜蘭冬山東城站","description":"管理單位:宜蘭縣冬山東城社區發展協會<br>服務地點:宜蘭縣冬山鄉東城路280號<br>服務電話：0939586350<br>服務時間:每周一至周五 上午8：20~下午5：20<br>服務對象:社區居民及鄰近有需要者<br>受贈物品品項：麵包，生活用品"}},{"type":"Feature","geometry":{"type":"Point","coordinates":[121.7452097,24.7009965,0]},"properties":{"name":"宜蘭三星尾塹站","description":"管理單位:尾塹社區發展協會<br>服務地點:三星鄉尾塹村上將路一段249巷30號<br>服務電話：039558278<br>服務時間:每星期一至五早上九點到下午四點<br>服務對象:村民<br>受贈物品品項：蔬菜水果麵包饅頭其他食材"}},{"type":"Feature","geometry":{"type":"Point","coordinates":[121.610003,24.676677,0]},"properties":{"name":"宜蘭大同卑埤站","description":"管理單位:宜蘭縣大同鄉原住民族家庭服務中心<br>服務地點:大同原家中心（大同鄉崙埤村）<br>服務電話：03-9801090<br>服務時間:星期一~五<br>早上09:00-12:00<br>下午13:30～17:00<br>服務對象:有需要者<br>受贈物品品項：麵包、蔬果、日用品"}},{"type":"Feature","geometry":{"type":"Point","coordinates":[121.8013848,24.4636336,0]},"properties":{"name":"宜蘭南澳南強站","description":"管理單位:宜蘭縣南澳鄉原住民族家庭服務中心<br>服務地點:宜蘭縣蘇澳鎮大通路30號<br>服務電話：03-9982193<br>服務時間: 每週一至週五 上午8:20-下午5:20<br>服務對象:原住民族人、社區鄰近有需要者<br>受贈物品品項：麵包、生活用品"}},{"type":"Feature","geometry":{"type":"Point","coordinates":[121.5799595,24.6551899,0]},"properties":{"name":"宜蘭大同松羅站\n","description":"管理單位：大同鄉松羅社區活動中心<br>服務地點：大同鄉松羅南巷35-1號<br>服務電話：03-9801096<br>服務時間：每週一至週五下午13點至17點<br>服務對象：課輔學童以及社區居民<br>受贈物品品項： 乾糧類(米、罐頭、麵條...等)<br>其他補充事項：課輔學童因為分享食物分享愛，而填飽肚子"}},{"type":"Feature","geometry":{"type":"Point","coordinates":[121.451565,24.531767,0]},"properties":{"name":"宜蘭大同茂安站","description":"管理單位：大同鄉茂安社區活動中心<br>服務地點：大同鄉茂安村泰雅路五段70號<br>服務電話：03-989709<br>服務時間：每週一至週五下午13點至17點<br>服務對象：課輔學童以及社區居民<br>受贈物品品項： 乾糧類(米、罐頭、麵條...等)、棉被<br>其他補充事項：分享愛和食物，把溫暖帶進社區的角落"}},{"type":"Feature","geometry":{"type":"Point","coordinates":[121.6887143,24.6103834,0]},"properties":{"name":"宜蘭大同寒溪站","description":"管理單位：宜蘭縣大同鄉寒溪長老教會<br>服務地點：宜蘭縣大同鄉寒溪村(巷)55-5號<br>服務電話：03-9517460<br>服務時間：週二至週五8:00-17:00<br>服務對象：寒溪村族人、有需要者<br>受贈物品品項：冷藏食品、麵包、餅乾類"}},{"type":"Feature","geometry":{"type":"Point","coordinates":[121.83987,24.59591,0]},"properties":{"name":"宜蘭蘇澳聖愛站","description":"管理單位：宜蘭縣蘇澳長老教會<br>服務地點：宜蘭縣蘇澳鎮中山路一段427號<br>服務電話：03-9962927<br>服務時間：每週一至週五下午3:00<br>服務對象：蘇澳教友及社區有需要民眾有需要者"}},{"type":"Feature","geometry":{"type":"Point","coordinates":[121.757626,24.771332,0]},"properties":{"name":"宜林新生站","description":"管理單位:宜林大診所<br>服務地點:宜蘭市中山路五段210號<br>服務電話:03-9280535<br>服務時間:<br>受贈品項:"}},{"type":"Feature","geometry":{"type":"Point","coordinates":[121.8273483,24.6205233,0]},"properties":{"name":"宜蘭蘇澳新城站","description":"管理單位: 宜蘭縣蘇澳鎮新城社區發展協會<br>服務地點: 蘇澳鎮新城里慶安路9號<br>服務電話：0939-789928<br>服務時間: 周一至周五10:00-16:00<br>服務對象: 社區居民及弱勢家庭<br>受贈物品品項：麵包 麵條 米 農產品 生活用品 <br>其他補充事項："}},{"type":"Feature","geometry":{"type":"Point","coordinates":[121.9004624,24.9428218,0]},"properties":{"name":"宜蘭頭城龜山站","description":"管理單位:頭城鎮龜山島社區發展協會<br>服務地點:宜蘭縣頭城鎮龜山路161號<br>服務電話:03-9780867<br>服務時間<br>受贈品項:"}},{"type":"Feature","geometry":{"type":"Point","coordinates":[121.7653906,24.6907871,0]},"properties":{"name":"宜蘭羅東竹林站","description":"管理單位:宜蘭羅東基督教福利會<br>服務地點:羅東鎮復興路二段238巷11號<br>服務電話:0972-346446<br>服務時間:<br>受贈品項:"}},{"type":"Feature","geometry":{"type":"Point","coordinates":[121.7745316,24.6929567,0]},"properties":{"name":"宜蘭羅東中興站","description":"管理單位:宜蘭五結鄉中興社區發展協會<br>服務地址:宜蘭五結鄉中興路三段6號<br>服務電話:03-9656528<br>服務時間:<br>受贈品項:"}},{"type":"Feature","geometry":{"type":"Point","coordinates":[121.7507819,24.7599211,0]},"properties":{"name":"宜蘭中山站","description":"管理單位:宜蘭鄂王社區發展協會<br>服務地點:宜蘭市慈安里1鄰慈安路81號<br>服務電話:03-9329912<br>服務時間:<br>受贈品項:"}},{"type":"Feature","geometry":{"type":"Point","coordinates":[121.764399,24.760684,0]},"properties":{"name":"宜蘭慈安站","description":"管理單位:宜蘭慈安社區發展協會<br>服務地點:宜蘭市慈安里1鄰慈安路81號<br>服務電話:03-9382877<br>服務時間:<br>受贈品項:"}},{"type":"Feature","geometry":{"type":"Point","coordinates":[121.1488217,22.7675628,0]},"properties":{"name":"台東寶桑站","description":"管理單位: 社團法人台東安心家庭關懷協會 萬善堂惜福冰箱<br>服務地點: 台東市勝利街285號<br>服務電話： 0921739621<br>服務時間: 全年無休<br>服務對象: 弱勢個案及邊緣戶<br>受贈物品品項： 蔬果、熟食、米、及日常生活用品"}},{"type":"Feature","geometry":{"type":"Point","coordinates":[121.136694,22.752009,0]},"properties":{"name":"台東豐隆站","description":"管理單位: 社團法人台東安心家庭關懷協會<br>服務地點: 台東市豐榮路107號<br>服務電話： 089328366<br>服務時間: 星期一至星期五上午9:00-18:00<br>服務對象: 弱勢個案及邊緣戶<br>受贈物品品項： 蔬果、熟食、米、及日常生活用品"}},{"type":"Feature","geometry":{"type":"Point","coordinates":[121.149413,22.760447,0]},"properties":{"name":"台東民生站","description":"管理單位: 社團法人臺東縣弱勢者關懷協會<br>服務地點: 臺東市浙江路82號<br>服務電話： 089-359-586<br>服務時間: 週一至週五 08:00-17:00<br>服務對象: 有需求者<br>受贈物品品項： 各類熟食"}},{"type":"Feature","geometry":{"type":"Point","coordinates":[121.128976,22.769098,0]},"properties":{"name":"台東光明站 (冷凍)","description":"管理單位: 社團法人台東縣智障者家長協會<br>服務地點: 台東市中興路2段200巷7號<br>服務電話： 089-238668<br>服務時間: 星期一至星期五上午8:00-1730<br>服務對象: 身心障礙家庭、弱勢個案<br>受贈物品品項： 蔬果、熟食、米、及日常生活用品"}},{"type":"Feature","geometry":{"type":"Point","coordinates":[121.381015,23.103163,0]},"properties":{"name":"台東成功忠智站 (冷凍)","description":"管理單位: 社團法人台東縣智障者家長協會<br>服務地點: 台東縣成功鎮中正路100號4樓<br>服務電話： 089-854456<br>服務時間: 星期一至星期五上午8:00-16:30<br>服務對象: 身心障礙家庭、弱勢個案、邊緣戶<br>受贈物品品項： 蔬果、熟食、米、及日常生活用品"}},{"type":"Feature","geometry":{"type":"Point","coordinates":[121.768084,24.8282058,0]},"properties":{"name":"宜蘭縣礁溪鄉德陽社區發展協會","description":"管理單位:德陽社區協會<br>服務地點:礁溪鄉成功路32之3号<br>服務電話：039882101<br>服務時間:每週三，五上下午<br>服務對象:社區長者<br>受贈物品品項：冷藏食品，麵包餅乾及蔬果"}},{"type":"Feature","geometry":{"type":"Point","coordinates":[121.771392,24.7588335,0]},"properties":{"name":"宜蘭縣宜蘭市延平社區活動中心"}},{"type":"Feature","geometry":{"type":"Point","coordinates":[121.7633527,24.7519287,0]},"properties":{"name":"宜蘭縣宜蘭市紳銘(新東社區)"}},{"type":"Feature","geometry":{"type":"Point","coordinates":[121.76337,24.6767102,0]},"properties":{"name":"宜蘭縣羅東鎮康復希望工作坊"}},{"type":"Feature","geometry":{"type":"Point","coordinates":[121.754097,24.7554141,0]},"properties":{"name":"宜蘭新民站"}},{"type":"Feature","geometry":{"type":"Point","coordinates":[121.823797,24.856535,0]},"properties":{"name":"宜蘭縣頭城小鎮生活"}},{"type":"Feature","geometry":{"type":"Point","coordinates":[121.100694,22.781438,0]},"properties":{"name":"台東卑南太平站 (冷凍)","description":"管理單位: 社團法人台東縣失智者關懷協會<br>服務地點: 台東縣卑南鄉太平村1鄰民生路86巷26號<br>服務電話： 089380900<br>服務時間: 星期一至星期五上午8:00-1730<br>服務對象: 弱勢個案及邊緣戶<br>受贈物品品項： 蔬果、熟食、米、及日常生活用品"}},{"type":"Feature","geometry":{"type":"Point","coordinates":[121.7982782,24.683985,0]},"properties":{"name":"宜蘭五結站","description":"管理單位:宜蘭婦女關懷協會<br>連絡電話:03-9600671"}},{"type":"Feature","geometry":{"type":"Point","coordinates":[120.549909,23.709828,0]},"properties":{"name":"社團法人雲林沐馨服務協會"}},{"type":"Feature","geometry":{"type":"Point","coordinates":[120.1616,23.615794,0]},"properties":{"name":"雲林縣家園關懷協會"}},{"type":"Feature","geometry":{"type":"Point","coordinates":[120.29389,23.457401,0]},"properties":{"name":"社團法人嘉義縣慈善團體聯合協會"}},{"type":"Feature","geometry":{"type":"Point","coordinates":[120.442478,23.492891,0]},"properties":{"name":"嘉義市欣願福利協會"}},{"type":"Feature","geometry":{"type":"Point","coordinates":[120.461388,23.483929,0]},"properties":{"name":"財團法人私立天主教中華聖母社會福利慈善事業基金會"}},{"type":"Feature","geometry":{"type":"Point","coordinates":[120.438388,23.683556,0]},"properties":{"name":"財團法人慶興社會福利基金會"}},{"type":"Feature","geometry":{"type":"Point","coordinates":[120.307656,23.330316,0]},"properties":{"name":"台南市新營區護鎮社區發展協會"}},{"type":"Feature","geometry":{"type":"Point","coordinates":[120.461388,23.483929,0]},"properties":{"name":"財團法人私立天主教中華聖母社會福利慈善事業基金會"}},{"type":"Feature","geometry":{"type":"Point","coordinates":[120.272019,23.008168,0]},"properties":{"name":"社團法人台南市酵母社會關懷協進會"}},{"type":"Feature","geometry":{"type":"Point","coordinates":[120.2269406,23.6373474,0]},"properties":{"name":"社團法人台灣愛鄰社區服務協會-雲林辦事處"}},{"type":"Feature","geometry":{"type":"Point","coordinates":[120.4427797,23.4708092,0]},"properties":{"name":"中華民國白玫瑰社會關懷協會"}},{"type":"Feature","geometry":{"type":"Point","coordinates":[120.3153273,23.3114999,0]},"properties":{"name":"中華民國紅十字會台灣省台南縣支會"}},{"type":"Feature","geometry":{"type":"Point","coordinates":[120.3093174,22.61306,0]},"properties":{"name":"社團法人高雄市鑫鑫慈善會\n"}},{"type":"Feature","geometry":{"type":"Point","coordinates":[120.3433743,22.6293697,0]},"properties":{"name":"社團法人高雄市社福慈善總會\n"}},{"type":"Feature","geometry":{"type":"Point","coordinates":[120.5014158,22.6863199,0]},"properties":{"name":"社團法人屏東慈善團體聯合協會"}},{"type":"Feature","geometry":{"type":"Point","coordinates":[120.5724465,22.75471,0]},"properties":{"name":"社團法人屏東縣慧光慈善功德會"}},{"type":"Feature","geometry":{"type":"Point","coordinates":[120.581034,22.709909,0]},"properties":{"name":"財團法人屏東縣私立椰子園老人養護之家\n"}},{"type":"Feature","geometry":{"type":"Point","coordinates":[120.30265,22.650321,0]},"properties":{"name":"社團法人高雄市慈善團體聯合總會"}},{"type":"Feature","geometry":{"type":"Point","coordinates":[120.582468,23.077464,0]},"properties":{"name":"高雄甲仙大田站","description":"管理單位: 高雄市甲仙區大田社區發展協會<br>服務地點: 高雄市甲仙區大田里新興路49-1號<br>服務電話: 07-6752640 0921233279<br>服務時間: 週一到週五11：00-12：00<br>服務對象: 獨居老人、低收戶、中低收戶、弱勢家庭。<br>受贈物品品項：主食類、生鮮食品、冷藏冷凍食品、水果類。 <br>其他補充事項：遇到國定假日公休。<br>分享食物分享愛-歡迎大家共同惜食愛地球"}},{"type":"Feature","geometry":{"type":"Point","coordinates":[120.463223,22.945846,0]},"properties":{"name":"高雄內門站","description":"管理單位: 高雄市內門區內門社區發展協會<br>服務地點: 高雄市內門區內門里內門56之10號<br>服務電話: 07-6674134<br>服務時間: 週一到週五09:00-11:00<br>服務對象:據點長輩、弱勢家庭。<br>受贈物品品項：主食類、生鮮食品、麵包、冷藏冷凍食品、水果類。 "}},{"type":"Feature","geometry":{"type":"Point","coordinates":[120.481825,22.890882,0]},"properties":{"name":"高雄旗山竹峰站","description":"管理單位: 旗山老街發展協會<br>服務地點: 高雄市旗山區中山路243號<br>服務電話: 07-6616056、0933-693324<br>服務時間: 不定<br>服務對象: 弱勢、中低、獨居長者、凝愛關懷協會課服班學童。<br>受贈物品品項： 主食類、生鮮食品，青菜，水果等<br>其他補充事項：冰箱設有群組用賴聯繫，在賴回應如何領取，無手機經聯絡後約定時間需求者才可領取或送達需求者住處。"}},{"type":"Feature","geometry":{"type":"Point","coordinates":[120.330862,22.639529,0]},"properties":{"name":"高雄三民寶安站","description":"管理單位: 高雄市佛心慈愛協會<br>服務地點:高雄市三民區寶安里覺民路531巷37弄10號<br>服務電話: 07-3809734<br>服務時間: 週二、三、四16:30-17:30<br>服務對象: 弱勢家庭<br>受贈物品品項：保存完整之食品、生鮮、麵包蔬果<br>其他補充事項："}},{"type":"Feature","geometry":{"type":"Point","coordinates":[120.319455,22.645982,0]},"properties":{"name":"高雄三民正興站","description":"管理單位: 快樂正興社區發展協會<br>服務地點: 高雄市三民區建安街32巷15號<br>服務電話: 07-3809008<br>服務時間: 週二、三、四17:00-19:00<br>服務對象:需要協助的家庭。<br>受贈物品品項：乾貨生鮮食品、麵包、冷藏冷凍食品、水果類。"}},{"type":"Feature","geometry":{"type":"Point","coordinates":[120.302568,22.648704,0]},"properties":{"name":"高雄三民安泰站","description":"管理單位: 社團法人高雄市三民區安泰社區發展協會<br>服務地點: 高雄市三民區重慶街274號<br>服務電話: 0926723468 073239699<br>服務時間: 週一到週五16:30-17:30<br>服務對象: 課輔班學童、社區獨居老人、日託班老人、中低收入戶、邊緣戶暨弱勢族群。<br>受贈物品品項： 米、油、牙膏、牙刷、衛生紙、泡麵、麵包、烘焙食品、蔬菜、水果、魚類、肉類食品、牛奶、罐頭、亞培營養補充品"}},{"type":"Feature","geometry":{"type":"Point","coordinates":[120.316794,22.652113,0]},"properties":{"name":"高雄三民灣復站","description":"管理單位: 社團法人高雄市慈善團體聯合總會<br>服務地點: 高雄市三民區灣復街32號<br>服務電話: 07-3925590<br>服務時間: 週二到週六16：00-17：00<br>服務對象：弱勢家庭優先、多於食材也與社區民眾分享 <br>受贈物品品項：生鮮蔬果、冷凍食品、乾貨皆可<br>其他補充事項："}},{"type":"Feature","geometry":{"type":"Point","coordinates":[120.3156357,22.6310043,0]},"properties":{"name":"高雄新興文昌站","description":"管理單位: 高雄市新興區文昌社區發展協會<br>服務地點: 高雄市新興區尚義街112巷66號<br>服務電話: 0909464945。、07 2229180<br>服務時間: 10：00---22：00<br>服務對象: 對於食物不浪費及能善用食才的普羅大眾都是對象<br>受贈物品品項： 蔬食，麵包，拜拜禮品，家庭、商家剩食，冷凍食品(即食料理包)，飲料<br>其他補充事項：附近有商家或個人看到了食物銀行的標誌也認同的，也會帶食才過來分享, 有些也是拆開過的，但東西無慮"}},{"type":"Feature","geometry":{"type":"Point","coordinates":[120.325579,22.619095,0]},"properties":{"name":"高雄苓雅林榮站","description":"管理單位: 新林榮社區發展協會<br>服務地點: 高雄市苓雅區凱旋三路885號<br>服務電話: 07-7155855、0932993091<br>服務時間: 10:00～18:00<br>服務對象: 課後照顧學童、單親、邊緣戶、獨居老人。<br>受贈物品品項： 主食類、生鮮食品、冷藏冷凍食品。<br>其他補充事項：全年無休<br>分享食物分享愛-歡迎大家共同惜食愛地球"}},{"type":"Feature","geometry":{"type":"Point","coordinates":[120.275779,22.60347,0]},"properties":{"name":"高雄旗津實踐站","description":"管理單位: 國立中山大學社會科學院<br>服務地點: 805 高雄市旗津區北汕尾巷6號<br>服務電話: 0912777046<br>服務時間: 每周一、三、五下午3點~5點發放食物<br>服務對象: 弱勢團體、獨居老人<br>受贈物品品項： 主食類、麵包類、生鮮食品、冷藏冷凍食品。<br>其他補充事項：遇到國定假日公休"}},{"type":"Feature","geometry":{"type":"Point","coordinates":[120.288271,22.671315,0]},"properties":{"name":"高雄左營果貿站","description":"管理單位: 高雄左營果貿社區果貿發展協會<br>服務地點: 果貿發展協會圖書館<br>服務電話: 07-5880160<br>服務時間: 每週一、五下午3:30～4:30<br>服務對象: 弱勢家庭與獨居長輩<br>受贈物品品項： 蔬菜、水果，冷凍包子饅頭粽子，熟素食等<br>其他補充事項：國定假日休息，領取者每次均有登記與統計人次"}},{"type":"Feature","geometry":{"type":"Point","coordinates":[120.365097,22.564705,0]},"properties":{"name":"高雄小港山明站","description":"管理單位: 社團法人高雄市愛之船慈善會<br>服務地點: 高雄市小港區山明路281巷40號<br>服務電話: 07-8066776<br>服務時間: 週一、四：14：00-16：00、週六：09：00-11：00<br>服務對象:弱勢家庭<br>受贈物品品項： 蔬菜、水果，冷凍包子饅頭粽子，熟素食等"}},{"type":"Feature","geometry":{"type":"Point","coordinates":[120.3148903,22.6349304,0]},"properties":{"name":"高雄新興民安站","description":"管理單位：高雄市新興區民安社區發展協會<br>服務地點：高雄市新興區尚文街14號<br>服務電話: （07）2237797、0933-63579<br>服務時間：週一到週五9~12點<br>服務對象：弱勢家庭、低收入戶、社區服務<br>受贈物品品項：蔬果生鮮、冷凍食品"}},{"type":"Feature","geometry":{"type":"Point","coordinates":[120.572888,22.754908,0]},"properties":{"name":"屏東鹽埔鹽南站","description":"管理單位：屏東縣慧光慈善功德會<br>服務地點：屏東縣鹽埔鄉鹽南村勝利路42號<br>服務電話：(08)793-8231、0966-738293<br>服務時間：每週四下午2-5點<br>服務對象：屏東縣鹽埔區家庭福利服務中心服務的弱勢族群、鹽埔鄉鄉公所服務<br> 的弱勢族群、獨居老人、鄰近學區課後照顧學童。<br>受贈物品品項：主食類、生鮮食品、冷藏冷凍食品。<br>其他補充事項：遇到國定假日公休、本週未有捐贈食材公休(請記得來電詢問)。<br>分享食物分享愛-歡迎大家共同惜食愛地球"}},{"type":"Feature","geometry":{"type":"Point","coordinates":[120.610146,22.72562,0]},"properties":{"name":"屏東鹽埔鹽中站","description":"管理單位：屏東縣慧光慈善功德會<br>服務地點：屏東縣鹽埔鄉豐年路36-2號<br>服務電話：(08)793-8231、0966-738293<br>服務時間：每週五下午2-5點<br>服務對象：屏東縣鹽埔區家庭福利服務中心服務的弱勢族群、鹽埔鄉鄉公所服務<br> 的弱勢族群、獨居老人。<br>受贈物品品項：主食類、生鮮食品、冷藏冷凍食品。<br>其他補充事項：遇到國定假日公休、本週未有捐贈食材公休(請記得來電詢問)。<br>分享食物分享愛-歡迎大家共同惜食愛地球"}},{"type":"Feature","geometry":{"type":"Point","coordinates":[120.611861,22.476313,0]},"properties":{"name":"屏東新埤餉潭站","description":"管理單位：屏東縣慧光慈善功德會<br>服務地點：屏東縣新埤鄉餉潭村龍潭路117號<br>服務電話：(08)793-8231、0966-738293<br>服務時間：週三下午2點半到4點<br>服務對象：課後照顧學童、夜光天使學童、獨居老人。<br>受贈物品品項：主食類、生鮮食品、冷藏冷凍食品。<br>其他補充事項：遇到國定假日公休、本週未有捐贈食材公休(請記得來電詢問)。<br>分享食物分享愛-歡迎大家共同惜食愛地球"}},{"type":"Feature","geometry":{"type":"Point","coordinates":[120.556306,22.6969127,0]},"properties":{"name":"屏東長治繁華站","description":"管理單位: 屏東縣私立椰子園老人養護之家<br>服務地點: 屏東縣長治繁華村水源路126之3號<br>服務電話： 08-7622885<br>服務時間: 全日24小時<br>服務對象: 不限身份<br>受贈物品品項：麵包、土司、菓乾、料理包、餅乾、米粉、麵條、蘆筍汁、紅茶等罐裝飲料 <br>其他補充事項：無"}},{"type":"Feature","geometry":{"type":"Point","coordinates":[120.314364,22.724327,0]},"properties":{"name":"幸運草餐飲店"}},{"type":"Feature","geometry":{"type":"Point","coordinates":[120.316801,22.621339,0]},"properties":{"name":"阿榮通訊行-愛心食物銀行"}},{"type":"Feature","geometry":{"type":"Point","coordinates":[120.350208,22.645714,0]},"properties":{"name":"阿們愛心冰箱(Solidarity Fridge)"}},{"type":"Feature","geometry":{"type":"Point","coordinates":[120.5262781,23.6990178,0]},"properties":{"name":"雲林斗六鎮西站","description":"管理單位:雲林縣政府社會處"}},{"type":"Feature","geometry":{"type":"Point","coordinates":[120.961134,24.807511,0]},"properties":{"name":"新竹市民富社區-棒球場旁邊梯間"}},{"type":"Feature","geometry":{"type":"Point","coordinates":[120.959491,24.819642,0]},"properties":{"name":"新竹市士林社區-境福宮"}},{"type":"Feature","geometry":{"type":"Point","coordinates":[120.981197,24.808368,0]},"properties":{"name":"新竹市天后慈愛崇善會"}},{"type":"Feature","geometry":{"type":"Point","coordinates":[120.907407,24.741769,0]},"properties":{"name":"新竹市內湖社區-順天宮"}},{"type":"Feature","geometry":{"type":"Point","coordinates":[120.934306,24.799455,0]},"properties":{"name":"新竹市樹下社區-靈安宮右方走廊"}},{"type":"Feature","geometry":{"type":"Point","coordinates":[120.972819,24.799768,0]},"properties":{"name":"新竹市下竹社區-青山宮"}},{"type":"Feature","geometry":{"type":"Point","coordinates":[121.011966,24.783358,0]},"properties":{"name":"新竹市科園社區-私立理想圓幼兒園對面"}},{"type":"Feature","geometry":{"type":"Point","coordinates":[120.930437,24.838943,0]},"properties":{"name":"新竹市北濱社區-代天府"}},{"type":"Feature","geometry":{"type":"Point","coordinates":[120.970068,24.798925,0]},"properties":{"name":"新竹市寺前社區-竹蓮寺"}},{"type":"Feature","geometry":{"type":"Point","coordinates":[121.303258,24.969059,0]},"properties":{"name":"桃園八德大勇站","description":"管理單位: 桃園市八德區大勇里社區關懷照顧據點<br>服務地點: 八德區大勇里忠勇街415號<br>服務電話：0933777261<br>服務時間: <br>早上08:00~11:00<br>下午15:00~18:00<br>服務對象: 中.低收入户.急需物資者.<br>受贈物品品項： 麵包·麵條·白米·冷藏食物.日用品等"}},{"type":"Feature","geometry":{"type":"Point","coordinates":[121.294863,24.993511,0]},"properties":{"name":"桃園中正站","description":"管理單位: 福梓社會關懷服務協會<br>服務地點: 桃園區縣府路256巷5弄4號1樓<br>服務電話： 0918-337608<br>服務時間: 10:00-12:00<br>服務對象: 清寒、獨居、隔代教養家庭<br>受贈物品品項： 生活日常、冷藏食品、文具"}},{"type":"Feature","geometry":{"type":"Point","coordinates":[121.2518715,24.9655623,0]},"properties":{"name":"桃園中壢自立站","description":"管理單位: 桃園市慈馨公益關懷協會<br>服務地點: 中壢區永福路1061-1號<br>服務電話： 03-2852178 0963313896<br>服務時間: 周一~周五，下午14：00-17：00<br>服務對象: 慈馨食物銀行個案<br>受贈物品品項： 冷藏、冷凍食品，生活用品<br>其他補充事項："}},{"type":"Feature","geometry":{"type":"Point","coordinates":[121.207665,24.958214,0]},"properties":{"name":"桃園中壢五福站","description":"管理單位: 中壢區五福里辦公處<br>服務地點：中壢區民族路208號<br>服務電話： 電話，03-4015409、0933788423<br>服務時間: 下午16：00-20：00<br>服務對象: 邊緣戶，單親，長者，身障，急需食品資助者<br>受贈物品品項： 冷藏，冷凍食品，生活用品"}},{"type":"Feature","geometry":{"type":"Point","coordinates":[121.088446,24.958191,0]},"properties":{"name":"桃園新屋社子站","description":"管理單位: 桃園市新屋區社子店<br>服務地點: 桃園市新屋區興福路955號<br>服務電話： 0988728097 03-4760356<br>服務時間: 早上08:00-09:00、下午15:00-17:00<br>服務對象: 清寒家庭、中低收入戶、<br>受贈物品品項： 冷藏、冷凍食品、生活用品"}},{"type":"Feature","geometry":{"type":"Point","coordinates":[121.143254,24.907592,0]},"properties":{"name":"桃園楊梅紅梅站","description":"管理單位: 桃園市楊梅區愛心慈善協會<br>服務地點：楊梅區武營街23號<br>服務電話： 03-4788345<br>服務時間: 下午14：00-17：00<br>服務對象: 邊緣戶，單親，長者，身障，急需食品資助者<br>受贈物品品項： 冷藏，冷凍食品，生活用品"}},{"type":"Feature","geometry":{"type":"Point","coordinates":[121.219041,24.901978,0]},"properties":{"name":"桃園平鎮福林站","description":"管理單位:桃園市平鎮區福林店<br>服務地點: 桃園市平鎮區東豐路326號<br>服務電話： 0925-277293；03-4195807<br>服務時間: 早上09:00-10:00；下午15:00-17:00<br>服務對象: 清寒家庭、中低收入戶、<br>受贈物品品項： 冷藏、冷凍食品、生活用品<br>其他補充事項：捐贈前請先撥打電話。"}},{"type":"Feature","geometry":{"type":"Point","coordinates":[121.22241,24.95279,0]},"properties":{"name":"桃園中壢石頭站","description":"管理單位: 中華民國國際慈善文教協會<br>服務地點: 中壢區永樂路33號<br>服務電話： 0955352263<br>服務時間: 上午10:00-12:00<br>服務對象: 清寒家庭<br>受贈物品品項： 冷藏、冷凍食品，生活用品"}},{"type":"Feature","geometry":{"type":"Point","coordinates":[121.169396,24.8873711,0]},"properties":{"name":"桃園中壢復興站","description":"管理單位: 桃園市中壢區復興社區發展拹會<br>服務地點: 中壢區長樂四街24号<br>服務電話：O937804365 <br>服務時間: 早上10.00~11.30<br>下午15.00~17.00<br>服務對象: 中.低收入户.急需物資者.<br>受贈物品品項： 冷藏食物.日用品等."}},{"type":"Feature","geometry":{"type":"Point","coordinates":[121.3491307,24.9873699,0]},"properties":{"name":"桃園龜山大同站","description":"管理單位:桃園市龜山區新福宮慈善愛心協會<br>服務地點: 桃園市龜山區大同路378號<br>服務電話： 0935-119701 ；03-3296877～8<br>服務時間: 暫定下午15:00-17:00(視情況再作調整)<br>服務對象: 社會弱勢族群、清寒家庭、中低收入戶以及無法受政府補助照顧之邊緣人。<br>受贈物品品項： 冷藏、冷凍食品、生活用品"}},{"type":"Feature","geometry":{"type":"Point","coordinates":[121.2771332,24.967528,0]},"properties":{"name":"桃園八德茄苳站"}},{"type":"Feature","geometry":{"type":"Point","coordinates":[121.1713191,24.920816,0]},"properties":{"name":"桃園楊梅永青站\n","description":"管理單位: 桃園市永青社區發展協會<br>服務地點: 楊梅區青山五街17號<br>服務電話： 03-4961611<br>服務時間:周一至周日 am: 8:00~pm:5:00<br>服務對象: 弱勢族群、獨居老人、單親家庭、中、低收入戶…等<br>受贈物品品項：麵包、調味包、調味醬包、麵條…等"}},{"type":"Feature","geometry":{"type":"Point","coordinates":[121.2975682,25.0559259,0]},"properties":{"name":"桃園蘆竹中山站\n","description":"管理單位： 桃園市蘆竹區中山社區發展協會 <br>服務地點： 桃園市蘆竹區中山路125巷3號<br>服務電話：0918-218827 <br>服務時間：周一至周日am: 10:00~pm:5:00<br>服務對象：弱勢族群、獨居老人、單親家庭、中、低收入戶…等<br>受贈物品品項：麵包、調味包、調味醬包、麵條…等 <br>其他補充事項："}},{"type":"Feature","geometry":{"type":"Point","coordinates":[120.641031,24.33195,0]},"properties":{"name":"台中外埔水美站","description":"管理單位:康家食物銀行<br>服務地點:台中市外埔區水美路20號<br>服務電話：26877229<br>服務時間: 週一~五<br>9:00~12:00<br>13:00~17:00<br>服務對象:經濟弱勢.邊緣戶.急難家庭等<br>受贈物品品項：食物.實物<br>分享食物分享愛-歡迎大家共同惜食愛地球"}},{"type":"Feature","geometry":{"type":"Point","coordinates":[120.621734,24.341922,0]},"properties":{"name":"台中大甲南陽站","description":"管理單位:康家食物銀行<br>服務地點:台中市大甲區中山路一段825-2號1F<br>服務電話：26878156<br>服務時間: 週一~五<br>9:00~12:00<br>13:00~17:00<br>週六9:00~12:00<br>服務對象:經濟弱勢.邊緣戶.急難家庭等<br>受贈物品品項：食物.實物<br>分享食物分享愛-歡迎大家共同惜食愛地球"}},{"type":"Feature","geometry":{"type":"Point","coordinates":[120.66645,24.125858,0]},"properties":{"name":"台中南區福興站","description":"社團法人臺中市喜樂福關懷協會"}},{"type":"Feature","geometry":{"type":"Point","coordinates":[120.620448,24.106298,0]},"properties":{"name":"台中烏日湖日站","description":"管理單位：童庭社會福利慈善事業基金會<br>服務地點：台中市烏日區新興路612巷 27號<br>服務電話：04-23360996<br>服務時間：每週一至週五上午10:00至晚上07:00<br>服務對象：社區有需要民眾"}},{"type":"Feature","geometry":{"type":"Point","coordinates":[120.657569,24.148469,0]},"properties":{"name":"台中西屯公益站","description":"服務電話<br>04-23027108"}},{"type":"Feature","geometry":{"type":"Point","coordinates":[120.6895564,24.1484997,0]},"properties":{"name":"台中北區樂英站"}},{"type":"Feature","geometry":{"type":"Point","coordinates":[120.684086,24.13946,0]},"properties":{"name":"台中中區綠川站","description":"管理單位:紅十字會台灣省台中支會<br>服務地點:台中市中區綠川西街145號7樓<br>服務電話：04-22222411轉213<br>服務時間:每月第四週週六9-12點<br>服務對象:紅十字會台中支會(食物銀行補助案)<br>受贈物品品項：冷藏冷凍食品、生活用品<br>分享食物分享愛-歡迎大家共同惜食愛地球"}},{"type":"Feature","geometry":{"type":"Point","coordinates":[120.650142,24.133216,0]},"properties":{"name":"台中南屯豐樂站","description":"管理單位: 臺中市多福教育關懷協會<br>服務地點: 臺中市南屯區文心南三路281號<br>服務電話： 04-24758251<br>服務時間: 10:00-11:00，16:00-17:00<br>服務對象: 臺中市市民<br>受贈物品品項： 蔬果，麵包<br>分享食物分享愛-歡迎大家共同惜食愛地球"}},{"type":"Feature","geometry":{"type":"Point","coordinates":[120.6969051,24.0260087,0]},"properties":{"name":"台中大里祥興站","description":"旭日"}},{"type":"Feature","geometry":{"type":"Point","coordinates":[120.6064373,24.1926966,0]},"properties":{"name":"台中西屯永安站"}},{"type":"Feature","geometry":{"type":"Point","coordinates":[120.5735053,24.1521652,0]},"properties":{"name":"台中大肚瑞井站"}},{"type":"Feature","geometry":{"type":"Point","coordinates":[120.6460121,24.1676529,0]},"properties":{"name":"台中西屯惠來站"}},{"type":"Feature","geometry":{"type":"Point","coordinates":[120.5475351,24.1489335,0]},"properties":{"name":"台中大肚大東站"}},{"type":"Feature","geometry":{"type":"Point","coordinates":[120.7225197,24.3101303,0]},"properties":{"name":"台中后里站","description":"管理單位:社團法人台中市基督教豐盛協會<br>服務地點:台中市后里區后里里4鄰三豐路四段43號<br>服務電話：04-25587003<br>服務時間:周一至周日<br>服務對象:社區民眾<br>受贈物品品項：麵包、生鮮<br>其他補充事項：一週二次社區共餐(週四、週日)"}},{"type":"Feature","geometry":{"type":"Point","coordinates":[120.3623134,23.8574499,0]},"properties":{"name":"彰化二林廣興站","description":"管理單位: 彰化縣二林鎮溝頭社區發展協會<br>服務地點 :二林鎮廣興里溝頭巷51號<br>服務電話: 0915-668820<br>服務時間: 每週二早上9點至10點30分<br>服務對象: 邊緣户及廣興弱勢家庭<br>受贈物品品項:麵包、水果、乾貨、罐頭、米、生活用品<br>其他補充事項:如有物資可代為轉贈物品及服務時間，依實際運作後調整"}},{"type":"Feature","geometry":{"type":"Point","coordinates":[120.370437,23.8970204,0]},"properties":{"name":"彰化二林南光站","description":"管理單位: 樂林食<實>物銀行<br>服務地點：彰化縣二林鎮建興街40號<br>服務電話： 04-8952060<br>服務時間: 每週一至週六，上午9點至12點<br>服務對象: 弱勢家庭<br>受贈物品品項： 麵包，蔬菜，水果，乾貨。<br>其他補充事項：樂林食物銀行為大二林區食物冰箱平台。我們依所收到物資。分類再度分享其他社區食物冰箱。<br>如有物資捐贈及服務時間，依實際需要調整。"}},{"type":"Feature","geometry":{"type":"Point","coordinates":[120.391404,23.933846,0]},"properties":{"name":"彰化二林趙甲站","description":"管理單位：二林鎮趙甲社區發展協會<br>服務地點：二林鎮趙甲里鎮平巷4號之三<br>服務電話：0972-066618（曾免）<br>服務時間：每週二早上9點30分∼11點止<br>服務對象：社區居民弱勢家庭<br>受贈物品品項：麵包，蔬果，罐頭，米，油，乾貨等<br>補充事項：依受贈物品及服務時間實際運作後，再做調整。歡迎善心民眾捐贈物品，幫助弱勢族群。"}},{"type":"Feature","geometry":{"type":"Point","coordinates":[120.4204878,23.9556198,0]},"properties":{"name":"彰化二林萬興站","description":"管理單位: 彰化縣二林鎮萬興社區發展協會<br>服務地點：二林鎮萬興里中央北街40號<br>服務電話： 04-8682287<br>服務時間: 每週一至五，下午2點至5點<br>服務對象: 社區居民及弱勢家庭<br>受贈物品品項： 麵包，蔬菜，水果，乾貨<br>其他補充事項：受贈物品及服務時間，依實際運作後調整"}},{"type":"Feature","geometry":{"type":"Point","coordinates":[120.4362603,23.9071707,0]},"properties":{"name":"彰化二林東勢站","description":"管理單位: 彰化縣二林鎮東勢社區發展協會<br>服務地點：二林鎮東勢里面前巷2-20號<br>                          (東勢社區活動中心)<br>服務電話： 0933-436777<br>服務時間: 每週六，晚上5點至6點30分<br>服務對象: 社區居民及弱勢家庭<br>受贈物品品項： 麵包，蔬菜，水果，乾貨<br>其他補充事項：受贈物品及服務時間，依實際運作後調整"}},{"type":"Feature","geometry":{"type":"Point","coordinates":[120.422138,23.9106131,0]},"properties":{"name":"彰化二林大永站","description":"管理單位：彰化縣二林鎮大永社區發展協會<br>服務地點：二林鎮大永里大永路38號<br>服務電話：04-8902326<br>服務時間：每週二，五晚上5點30∼7點止<br>服務對象：社區居民弱勢家庭<br>受贈物品品項：麵包，蔬果，罐頭，米，油，乾貨等<br>補充事項：依受贈物品及服務時間實際運作後，再做調整。歡迎善心民眾捐贈物品，幫助弱勢族群。"}},{"type":"Feature","geometry":{"type":"Point","coordinates":[120.6856473,23.7538411,0]},"properties":{"name":"南投竹山中正站"}},{"type":"Feature","geometry":{"type":"Point","coordinates":[120.9736033,23.965148,0]},"properties":{"name":"南投埔里東門站"}},{"type":"Feature","geometry":{"type":"Point","coordinates":[120.8692235,23.9358224,0]},"properties":{"name":"南投國姓南港站","description":"管理單位:南投縣國姓鄉港源社區發展協會<br>服務地址:南投縣國姓鄉南港村南港路11-5號<br>服務電話:0921-992481<br>服務時間:"}},{"type":"Feature","geometry":{"type":"Point","coordinates":[120.43753,24.04035,0]},"properties":{"name":"西勢社區發展協會"}},{"type":"Feature","geometry":{"type":"Point","coordinates":[120.663339,24.139733,0]},"properties":{"name":"共享冰箱 Food Sharing Station@自己的房間"}},{"type":"Feature","geometry":{"type":"Point","coordinates":[120.663339,24.139733,0]},"properties":{"name":"共享冰箱 Food Sharing Station@自己的房間"}},{"type":"Feature","geometry":{"type":"Point","coordinates":[120.645469,24.133656,0]},"properties":{"name":"南屯區向心里辦公室"}},{"type":"Feature","geometry":{"type":"Point","coordinates":[120.567286,23.96286,0]},"properties":{"name":"元泰當鋪","description":"員林基督教醫院對面"}},{"type":"Feature","geometry":{"type":"Point","coordinates":[120.692754,24.161717,0]},"properties":{"name":"萬寶當鋪"}},{"type":"Feature","geometry":{"type":"Point","coordinates":[120.658305,24.146282,0]},"properties":{"name":"雷穀食堂"}},{"type":"Feature","geometry":{"type":"Point","coordinates":[120.6907571,24.145399,0]},"properties":{"name":"台中東區富仁站","description":"管理單位:社團法人臺中市東區富仁社區發展協會"}},{"type":"Feature","geometry":{"type":"Point","coordinates":[121.504202,25.260947,0]},"properties":{"name":"新北三芝埔坪站","description":"社團法人中華民國新生活社會褔利發展促進會<br>服務電話<br>02-26362978"}},{"type":"Feature","geometry":{"type":"Point","coordinates":[121.51994,24.9977764,0]},"properties":{"name":"新北永和民族站","description":"新北永和民權社區發展協會"}},{"type":"Feature","geometry":{"type":"Point","coordinates":[121.41435,24.956152,0]},"properties":{"name":"新北土城頂埔站","description":"社團法人新北市家長志工教育成長協會"}},{"type":"Feature","geometry":{"type":"Point","coordinates":[121.619483,25.041307,0]},"properties":{"name":"台北南港舊庄站","description":"管理單位:舊莊社區發展協會<br>服務地點:舊莊街一段199巷11弄8號<br>服務電話：0931518686<br>服務時間:下午16：30-17：00<br>服務對象:弱勢族群<br>受贈物品品項：麵包，生鮮蔬果，熟飯菜等"}},{"type":"Feature","geometry":{"type":"Point","coordinates":[121.6171289,25.0367366,0]},"properties":{"name":"台北南港中研站","description":"*久如社區發展協會"}},{"type":"Feature","geometry":{"type":"Point","coordinates":[121.586507,25.0438685,0]},"properties":{"name":"台北南港鴻福站","description":"*台北鴻福社區發展協會"}},{"type":"Feature","geometry":{"type":"Point","coordinates":[121.556904,25.079811,0]},"properties":{"name":"財團法人基督教台灣信義會大直真理堂","description":"服務電話<br>02-8501-1754"}},{"type":"Feature","geometry":{"type":"Point","coordinates":[121.7537023,25.0959856,0]},"properties":{"name":"基隆暖暖碇內站","description":"管理單位: 基隆暖暖區碇內社區發展協會                     （關懷據點C級巷弄長照站）<br>服務地點: 基隆暖暖區暖碇路15巷136號<br>服務電話：02-2459-5108、<br>                     0936-941070<br>服務時間: 每週二四五下午14:00-1600<br>受贈物品品項： 蛋奶素食類之乾貨、麵包、罐頭、冷藏類、冷凍類、生鮮蔬果類"}},{"type":"Feature","geometry":{"type":"Point","coordinates":[121.471424,25.025271,0]},"properties":{"name":"板橋愛心free食物銀行"}},{"type":"Feature","geometry":{"type":"Point","coordinates":[121.636311,25.222944,0]},"properties":{"name":"萬金社區食物銀行(社區冰箱)"}},{"type":"Feature","geometry":{"type":"Point","coordinates":[121.531603,25.020138,0]},"properties":{"name":"享食站 半路咖啡 - Food Hub Halfway Cafe"}},{"type":"Feature","geometry":{"type":"Point","coordinates":[121.445395,25.011518,0]},"properties":{"name":"分享愛社團-板橋愛心冰箱站"}},{"type":"Feature","geometry":{"type":"Point","coordinates":[121.506368,25.029375,0]},"properties":{"name":"南機場食享冰箱-忠勤里","description":"服務地點:台北市中華路二段307巷42號<br>服務電話：02-23036281<br>服務時間:每周一至周五 16:20-17:00<br>服務對象:任何社區民眾<br>受贈物品品項：麵包為主，偶爾有蔬菜白飯"}},{"type":"Feature","geometry":{"type":"Point","coordinates":[121.524674,25.022422,0]},"properties":{"name":"南機場食享冰箱-頂東里","description":"服務地點:台北市晉江街112巷2弄6號<br>服務電話：02-23648892<br>服務時間:每周一至周五15:00~發完為止<br>服務對象:任何社區民眾<br>受贈物品品項：麵包"}},{"type":"Feature","geometry":{"type":"Point","coordinates":[121.531283,25.028844,0]},"properties":{"name":"515 Cafe&books 享食冰箱","description":"時間：週一至週日11:30 - 23:00"}},{"type":"Feature","geometry":{"type":"Point","coordinates":[121.509865,25.027104,0]},"properties":{"name":"南機場食享冰箱-永昌里","description":"服務地點:汀洲路一段242巷17號<br>服務電話：0958-971396<br>服務時間:每周一至周五 16:20-17:00<br>服務對象:任何社區民眾<br>受贈物品品項：麵包"}},{"type":"Feature","geometry":{"type":"Point","coordinates":[121.525285,25.016933,0]},"properties":{"name":"南機場食享冰箱-林興里","description":"服務地點:水源路21號<br>服務電話：02-23686919<br>服務時間:每周一至周五 15:00-16:00<br>服務對象:任何社區民眾<br>受贈物品品項：麵包"}},{"type":"Feature","geometry":{"type":"Point","coordinates":[121.520266,25.032802,0]},"properties":{"name":"南機場食享冰箱-新營里","description":"服務地點:寧波東街16巷2號<br>服務電話：02-23214028<br>服務時間:每周一至周五13:30-16:30<br>服務對象:任何社區民眾<br>受贈物品品項：麵包"}},{"type":"Feature","geometry":{"type":"Point","coordinates":[121.49432,25.023843,0]},"properties":{"name":"南機場食享冰箱-孝德里","description":"服務地點:台北市萬華區寶興街140巷17弄2號<br>服務電話：0920-285615<br>服務時間:每周一至周五 16:30-18:00<br>服務對象:任何社區民眾<br>受贈物品品項：麵包"}},{"type":"Feature","geometry":{"type":"Point","coordinates":[121.5013351,25.0238385,0]},"properties":{"name":"台北萬華壽德站","description":"管理單位:萬大社區發展協會"}},{"type":"Feature","geometry":{"type":"Point","coordinates":[121.5465944,25.0348489,0]},"properties":{"name":"台北大安德安站","description":"管理單位:台灣國際飢餓對策協會"}},{"type":"Feature","geometry":{"type":"Point","coordinates":[121.631893,25.069386,0]},"properties":{"name":"新北汐止金龍站"}},{"type":"Feature","geometry":{"type":"Point","coordinates":[121.5344063,25.0637425,0]},"properties":{"name":"台北中山行政站"}},{"type":"Feature","geometry":{"type":"Point","coordinates":[121.458259,25.0835779,0]},"properties":{"name":"新北蘆洲永德站"}},{"type":"Feature","geometry":{"type":"Point","coordinates":[121.506602,25.007141,0]},"properties":{"name":"社團法人中華基督教救助協會"}},{"type":"Feature","geometry":{"type":"Point","coordinates":[121.504202,25.260947,0]},"properties":{"name":"社團法人中華民國新生活社會褔利發展促進會"}},{"type":"Feature","geometry":{"type":"Point","coordinates":[121.41435,24.956152,0]},"properties":{"name":"社團法人新北市家長志工教育成長協會"}},{"type":"Feature","geometry":{"type":"Point","coordinates":[121.456877,25.06408,0]},"properties":{"name":"社團法人中華安得烈慈善協會"}},{"type":"Feature","geometry":{"type":"Point","coordinates":[121.413833,25.02557,0]},"properties":{"name":"社團法人台灣社區鴻羽關懷協會"}},{"type":"Feature","geometry":{"type":"Point","coordinates":[121.526986,25.037283,0]},"properties":{"name":"財團法人台灣基督教福利會"}},{"type":"Feature","geometry":{"type":"Point","coordinates":[121.50513,25.029707,0]},"properties":{"name":"社團法人台北市臻佶祥社會服務協會","description":"(方里長)"}},{"type":"Feature","geometry":{"type":"Point","coordinates":[121.526132,25.021064,0]},"properties":{"name":"財團法人興毅社會福利慈善事業基金會"}},{"type":"Feature","geometry":{"type":"Point","coordinates":[121.534633,25.051522,0]},"properties":{"name":"財團法人感恩社會福利基金會"}},{"type":"Feature","geometry":{"type":"Point","coordinates":[121.536476,25.025576,0]},"properties":{"name":"社團法人台灣愛鄰社區服務協會"}},{"type":"Feature","geometry":{"type":"Point","coordinates":[121.4993,25.124433,0]},"properties":{"name":"財團法人家樂福文教基金會"}},{"type":"Feature","geometry":{"type":"Point","coordinates":[121.524486,25.057923,0]},"properties":{"name":"台灣國際飢餓對策協會"}},{"type":"Feature","geometry":{"type":"Point","coordinates":[121.512879,25.042725,0]},"properties":{"name":"財團法人金花教育基金會"}},{"type":"Feature","geometry":{"type":"Point","coordinates":[121.532825,25.057827,0]},"properties":{"name":"財團法人廣青文教基金會"}},{"type":"Feature","geometry":{"type":"Point","coordinates":[121.622137,25.038817,0]},"properties":{"name":"社團法人台北市南港區舊莊社區發展協會"}},{"type":"Feature","geometry":{"type":"Point","coordinates":[121.563175,25.040801,0]},"properties":{"name":"聯合利華股份有限公司"}},{"type":"Feature","geometry":{"type":"Point","coordinates":[121.4427498,25.0317725,0]},"properties":{"name":"中華分享愛大善急助協會"}},{"type":"Feature","geometry":{"type":"Point","coordinates":[121.761988,24.789066,0]},"properties":{"name":"社團法人宜蘭縣愛加倍關懷協會"}},{"type":"Feature","geometry":{"type":"Point","coordinates":[121.137733,22.748687,0]},"properties":{"name":"社團法人台灣安心家庭關懷協會"}},{"type":"Feature","geometry":{"type":"Point","coordinates":[121.7708378,24.820466,0]},"properties":{"name":"社團法人宜蘭縣蓮記飄香饌關懷協會"}},{"type":"Feature","geometry":{"type":"Point","coordinates":[121.275093,24.981102,0]},"properties":{"name":"社團法人中華民國篤仁慈善關懷協會"}},{"type":"Feature","geometry":{"type":"Point","coordinates":[121.312341,25.015693,0]},"properties":{"name":"桃園市及時雨行善協會"}},{"type":"Feature","geometry":{"type":"Point","coordinates":[121.248663,24.933086,0]},"properties":{"name":"財團法人桃園市真善美社會福利基金會"}},{"type":"Feature","geometry":{"type":"Point","coordinates":[121.309557,24.975207,0]},"properties":{"name":"旭登護理之家"}},{"type":"Feature","geometry":{"type":"Point","coordinates":[121.146323,24.91321,0]},"properties":{"name":"社團法人桃園市慈馨公益關懷協會"}},{"type":"Feature","geometry":{"type":"Point","coordinates":[120.654187,24.443045,0]},"properties":{"name":"財團法人基督教苑裡聖教會"}},{"type":"Feature","geometry":{"type":"Point","coordinates":[120.91414,24.689158,0]},"properties":{"name":"中華民國紅十字會台灣省苗栗縣支會"}},{"type":"Feature","geometry":{"type":"Point","coordinates":[120.567245,24.124645,0]},"properties":{"name":"社團法人台中市大肚區禾楓慈善老人關懷協會"}},{"type":"Feature","geometry":{"type":"Point","coordinates":[120.650142,24.133216,0]},"properties":{"name":"社團法人台中市多福教育關懷協會"}},{"type":"Feature","geometry":{"type":"Point","coordinates":[120.725944,24.236906,0]},"properties":{"name":"財團法人醒世慈善會台中市分事務所"}},{"type":"Feature","geometry":{"type":"Point","coordinates":[120.66645,24.125858,0]},"properties":{"name":"社團法人台中市喜樂福關懷協會"}},{"type":"Feature","geometry":{"type":"Point","coordinates":[120.684976,24.167453,0]},"properties":{"name":"財團法人台中市私立衡山社會福利基金會"}},{"type":"Feature","geometry":{"type":"Point","coordinates":[120.717661,24.133851,0]},"properties":{"name":"財團法人一貫道崇正基金會"}},{"type":"Feature","geometry":{"type":"Point","coordinates":[120.633623,24.33188,0]},"properties":{"name":"財團法人台中市私立康家社會福利基金會"}},{"type":"Feature","geometry":{"type":"Point","coordinates":[120.712152,24.257448,0]},"properties":{"name":"財團法人台中市私立弗傳慈心社會福利慈善事業基金會"}},{"type":"Feature","geometry":{"type":"Point","coordinates":[120.679363,24.161769,0]},"properties":{"name":"財團法人天主教台中教區附設互愛物資銀行"}},{"type":"Feature","geometry":{"type":"Point","coordinates":[120.665806,23.903154,0]},"properties":{"name":"社團法人中華民國紅十字會台灣省南投縣支會"}},{"type":"Feature","geometry":{"type":"Point","coordinates":[120.657569,24.148469,0]},"properties":{"name":"社團法人台灣陽光婦女協會"}},{"type":"Feature","geometry":{"type":"Point","coordinates":[120.681505,23.910796,0]},"properties":{"name":"社團法人南投縣青年返鄉服務協會"}},{"type":"Feature","geometry":{"type":"Point","coordinates":[120.973603,23.965148,0]},"properties":{"name":"台灣省甘霖功德會"}},{"type":"Feature","geometry":{"type":"Point","coordinates":[120.595337,23.950541,0]},"properties":{"name":"社團法人彰化縣愛加倍社區服務協會"}},{"type":"Feature","geometry":{"type":"Point","coordinates":[120.547446,24.086619,0]},"properties":{"name":"社團法人彰化縣愛鄰社會福利協會"}},{"type":"Feature","geometry":{"type":"Point","coordinates":[120.581507,23.958228,0]},"properties":{"name":"社團法人彰化縣彰暉愛心慈善協會"}},{"type":"Feature","geometry":{"type":"Point","coordinates":[120.696905,24.026009,0]},"properties":{"name":"中華民國旭日青少年發展協會"}},{"type":"Feature","geometry":{"type":"Point","coordinates":[120.696072,24.056628,0]},"properties":{"name":"財團法人台中市私立林蘭生慈善基金會"}},{"type":"Feature","geometry":{"type":"Point","coordinates":[120.684086,24.13946,0]},"properties":{"name":"台灣食物銀行聯合會","description":"<img src=\"https://doc-0c-84-mymaps.googleusercontent.com/untrusted/hostedimage/f3b2dqtipj61dpr0r4ft5or71g/f0cpjvk3sd85b9lldn4748ljc4/1578204000000/88G9EWVEQtrnDFVimK5EeSaMGvg5_rm9/14920644892035454765/1AF2TALrDR9cCXMAhFTPhQKzqUQHFJjKyEF-RoWXodfITiKOgiB31UYqnpHgt1tTCjwkCHtqLcp0USix-B1LdNYUUGdYBR4dzp82NZLvTC3y_U6xKZXwF2wNFxH-qr2Oq1q1-FOP_2V3dVM2GIw1xQ8uPZqbgj7C-BfjaO8MfO8Stt5iYGePninqe5izzUp5aLL0rArjhuHn12Liwzj1Jdflyi-UaPjIC6pKngvrNp4u6HDDgDL2n4aBcBbvbafOB0dnVH-_w7fN8LD7aHSGTc2IyUQKnz2oEVA?session=0&fife\" height=\"200\" width=\"auto\" /><br><br>社團法人中華民國紅十字會台灣省台中支會","gx_media_links":"https://doc-0c-84-mymaps.googleusercontent.com/untrusted/hostedimage/f3b2dqtipj61dpr0r4ft5or71g/f0cpjvk3sd85b9lldn4748ljc4/1578204000000/88G9EWVEQtrnDFVimK5EeSaMGvg5_rm9/14920644892035454765/1AF2TALrDR9cCXMAhFTPhQKzqUQHFJjKyEF-RoWXodfITiKOgiB31UYqnpHgt1tTCjwkCHtqLcp0USix-B1LdNYUUGdYBR4dzp82NZLvTC3y_U6xKZXwF2wNFxH-qr2Oq1q1-FOP_2V3dVM2GIw1xQ8uPZqbgj7C-BfjaO8MfO8Stt5iYGePninqe5izzUp5aLL0rArjhuHn12Liwzj1Jdflyi-UaPjIC6pKngvrNp4u6HDDgDL2n4aBcBbvbafOB0dnVH-_w7fN8LD7aHSGTc2IyUQKnz2oEVA?session=0&fife"}},{"type":"Feature","geometry":{"type":"Point","coordinates":[120.7225197,24.3101303,0]},"properties":{"name":"社團法人台中市基督教豐盛協會"}}]}